{"lon_-83.048546_and_lat_42.33168": {"businesses": [{"id": "HbEwyxLIAwc8tx8Ll9laOQ", "alias": "the-westin-book-cadillac-detroit-detroit", "name": "The Westin Book Cadillac Detroit", "image_url": "https://s3-media2.fl.yelpcdn.com/bphoto/NdhwNs3FqYg4-HllMrUieQ/o.jpg", "is_closed": false, "url": "https://www.yelp.com/biz/the-westin-book-cadillac-detroit-detroit?adjust_creative=IRGiHDHEMvnO3enKiUWF4A&utm_campaign=yelp_api_v3&utm_medium=api_v3_business_search&utm_source=IRGiHDHEMvnO3enKiUWF4A", "review_count": 267, "categories": [{"alias": "hotels", "title": "Hotels"}, {"alias": "venues", "title": "Venues & Event Spaces"}], "rating": 4.0, "coordinates": {"latitude": 42.33242, "longitude": -83.05047}, "transactions": [], "price": "$$$", "location": {"address1": "1114 Washington Blvd", "address2": "", "address3": "", "city": "Detroit", "zip_code": "48226", "country": "US", "state": "MI", "display_address": ["1114 Washington Blvd", "Detroit, MI 48226"]}, "phone": "+13134421600", "display_phone": "(313) 442-1600", "distance": 151.6165857563693}, {"id": "t_2WmzFuwnYEpzfSKABYgg", "alias": "detroit-foundation-hotel-detroit", "name": "Detroit Foundation Hotel", "image_url": "https://s3-media3.fl.yelpcdn.com/bphoto/GBL4Pu0M2kZVi0iZLtsmrA/o.jpg", "is_closed": false, "url": "https://www.yelp.com/biz/detroit-foundation-hotel-detroit?adjust_creative=IRGiHDHEMvnO3enKiUWF4A&utm_campaign=yelp_api_v3&utm_medium=api_v3_business_search&utm_source=IRGiHDHEMvnO3enKiUWF4A", "review_count": 90, "categories": [{"alias": "hotels", "title": "Hotels"}], "rating": 4.5, "coordinates": {"latitude": 42.328328, "longitude": -83.048352}, "transactions": [], "price": "$$$", "location": {"address1": "250 W Larned St", "address2": "", "address3": null, "city": "Detroit", "zip_code": "48226", "country": "US", "state": "MI", "display_address": ["250 W Larned St", "Detroit, MI 48226"]}, "phone": "+13138005500", "display_phone": "(313) 800-5500", "distance": 373.06599419643896}, {"id": "ByOX-Ik4Jhr3i_Um2xO4uw", "alias": "aloft-detroit-at-the-david-whitney-detroit", "name": "Aloft Detroit at the David Whitney", "image_url": "https://s3-media2.fl.yelpcdn.com/bphoto/Jr1u6yJS32r2QINNKqKRHw/o.jpg", "is_closed": false, "url": "https://www.yelp.com/biz/aloft-detroit-at-the-david-whitney-detroit?adjust_creative=IRGiHDHEMvnO3enKiUWF4A&utm_campaign=yelp_api_v3&utm_medium=api_v3_business_search&utm_source=IRGiHDHEMvnO3enKiUWF4A", "review_count": 110, "categories": [{"alias": "hotels", "title": "Hotels"}, {"alias": "venues", "title": "Venues & Event Spaces"}], "rating": 4.0, "coordinates": {"latitude": 42.33581023165795, "longitude": -83.05050944309794}, "transactions": [], "price": "$$", "location": {"address1": "One Park Ave", "address2": null, "address3": null, "city": "Detroit", "zip_code": "48226", "country": "US", "state": "MI", "display_address": ["One Park Ave", "Detroit, MI 48226"]}, "phone": "+13132371700", "display_phone": "(313) 237-1700", "distance": 486.7933524646719}, {"id": "EzgdsNgqyqnMI4LjN90oww", "alias": "mgm-grand-detroit-detroit-2", "name": "MGM Grand Detroit", "image_url": "https://s3-media4.fl.yelpcdn.com/bphoto/cNZ0vKlW0vdDcpTVMXHn_Q/o.jpg", "is_closed": false, "url": "https://www.yelp.com/biz/mgm-grand-detroit-detroit-2?adjust_creative=IRGiHDHEMvnO3enKiUWF4A&utm_campaign=yelp_api_v3&utm_medium=api_v3_business_search&utm_source=IRGiHDHEMvnO3enKiUWF4A", "review_count": 315, "categories": [{"alias": "hotels", "title": "Hotels"}, {"alias": "casinos", "title": "Casinos"}], "rating": 3.0, "coordinates": {"latitude": 42.333563, "longitude": -83.059204}, "transactions": [], "price": "$$$", "location": {"address1": "1777 3rd Ave", "address2": "", "address3": "", "city": "Detroit", "zip_code": "48226", "country": "US", "state": "MI", "display_address": ["1777 3rd Ave", "Detroit, MI 48226"]}, "phone": "+18778882121", "display_phone": "(877) 888-2121", "distance": 900.7657681187677}, {"id": "ptFM4blt20bLc80avvXfHw", "alias": "doubletree-suites-by-hilton-hotel-detroit-downtown-fort-shelby-detroit-3", "name": "DoubleTree Suites by Hilton Hotel Detroit Downtown - Fort Shelby", "image_url": "https://s3-media3.fl.yelpcdn.com/bphoto/1adnYdfgkGNfyK18dqkBMA/o.jpg", "is_closed": false, "url": "https://www.yelp.com/biz/doubletree-suites-by-hilton-hotel-detroit-downtown-fort-shelby-detroit-3?adjust_creative=IRGiHDHEMvnO3enKiUWF4A&utm_campaign=yelp_api_v3&utm_medium=api_v3_business_search&utm_source=IRGiHDHEMvnO3enKiUWF4A", "review_count": 110, "categories": [{"alias": "hotels", "title": "Hotels"}], "rating": 3.5, "coordinates": {"latitude": 42.3293497, "longitude": -83.0526689}, "transactions": [], "price": "$$", "location": {"address1": "525 W Lafayette Blvd", "address2": "", "address3": "", "city": "Detroit", "zip_code": "48226", "country": "US", "state": "MI", "display_address": ["525 W Lafayette Blvd", "Detroit, MI 48226"]}, "phone": "+13139635600", "display_phone": "(313) 963-5600", "distance": 426.62126082625866}, {"id": "iefl5nALcLu7EKzcFjUaGQ", "alias": "the-detroit-club-detroit", "name": "The Detroit Club", "image_url": "https://s3-media1.fl.yelpcdn.com/bphoto/Hbr8OhfgJeqKQvIOw7GnRQ/o.jpg", "is_closed": false, "url": "https://www.yelp.com/biz/the-detroit-club-detroit?adjust_creative=IRGiHDHEMvnO3enKiUWF4A&utm_campaign=yelp_api_v3&utm_medium=api_v3_business_search&utm_source=IRGiHDHEMvnO3enKiUWF4A", "review_count": 69, "categories": [{"alias": "social_clubs", "title": "Social Clubs"}, {"alias": "newamerican", "title": "American (New)"}, {"alias": "hotels", "title": "Hotels"}], "rating": 4.0, "coordinates": {"latitude": 42.329707610564, "longitude": -83.050738914188}, "transactions": ["delivery"], "price": "$$$", "location": {"address1": "712 Cass Ave", "address2": "", "address3": "", "city": "Detroit", "zip_code": "48226", "country": "US", "state": "MI", "display_address": ["712 Cass Ave", "Detroit, MI 48226"]}, "phone": "+13133383222", "display_phone": "(313) 338-3222", "distance": 283.89470557651896}, {"id": "WBs1UZcgLc5aThw5E6w3QQ", "alias": "detroit-marriott-at-the-renaissance-center-detroit", "name": "Detroit Marriott at the Renaissance Center", "image_url": "https://s3-media3.fl.yelpcdn.com/bphoto/tj_6VDqfeZTOs6NIkOwl2A/o.jpg", "is_closed": false, "url": "https://www.yelp.com/biz/detroit-marriott-at-the-renaissance-center-detroit?adjust_creative=IRGiHDHEMvnO3enKiUWF4A&utm_campaign=yelp_api_v3&utm_medium=api_v3_business_search&utm_source=IRGiHDHEMvnO3enKiUWF4A", "review_count": 327, "categories": [{"alias": "hotels", "title": "Hotels"}, {"alias": "venues", "title": "Venues & Event Spaces"}], "rating": 3.0, "coordinates": {"latitude": 42.3288965900366, "longitude": -83.0393888988237}, "transactions": [], "price": "$$$", "location": {"address1": "400 Renaissance Ctr", "address2": "400 Renaissance Dr", "address3": "", "city": "Detroit", "zip_code": "48243", "country": "US", "state": "MI", "display_address": ["400 Renaissance Ctr", "400 Renaissance Dr", "Detroit, MI 48243"]}, "phone": "+13135688000", "display_phone": "(313) 568-8000", "distance": 813.8904994460693}, {"id": "fmAjKpZvcaVx63EBdwVGnw", "alias": "atheneum-suite-hotel-detroit", "name": "Atheneum Suite Hotel", "image_url": "https://s3-media3.fl.yelpcdn.com/bphoto/ZMGjhWxGrJtd-VntAT0ndA/o.jpg", "is_closed": false, "url": "https://www.yelp.com/biz/atheneum-suite-hotel-detroit?adjust_creative=IRGiHDHEMvnO3enKiUWF4A&utm_campaign=yelp_api_v3&utm_medium=api_v3_business_search&utm_source=IRGiHDHEMvnO3enKiUWF4A", "review_count": 161, "categories": [{"alias": "hotels", "title": "Hotels"}], "rating": 3.0, "coordinates": {"latitude": 42.333978377866636, "longitude": -83.0429429023152}, "transactions": [], "price": "$$", "location": {"address1": "1000 Brush St", "address2": "", "address3": "", "city": "Detroit", "zip_code": "48226", "country": "US", "state": "MI", "display_address": ["1000 Brush St", "Detroit, MI 48226"]}, "phone": "+13139622323", "display_phone": "(313) 962-2323", "distance": 526.7305503351964}, {"id": "jLgHyIJctBnpL2Y6XVUlrw", "alias": "trumbull-and-porter-an-ascend-hotel-collection-member-detroit", "name": "Trumbull and Porter, an Ascend Hotel Collection Member", "image_url": "https://s3-media2.fl.yelpcdn.com/bphoto/Vf3TnfA5kxd1Gw1YyhU6_g/o.jpg", "is_closed": false, "url": "https://www.yelp.com/biz/trumbull-and-porter-an-ascend-hotel-collection-member-detroit?adjust_creative=IRGiHDHEMvnO3enKiUWF4A&utm_campaign=yelp_api_v3&utm_medium=api_v3_business_search&utm_source=IRGiHDHEMvnO3enKiUWF4A", "review_count": 123, "categories": [{"alias": "hotels", "title": "Hotels"}], "rating": 3.5, "coordinates": {"latitude": 42.3271570642108, "longitude": -83.0648159980774}, "transactions": [], "price": "$$", "location": {"address1": "1331 Trumbull St", "address2": "", "address3": "", "city": "Detroit", "zip_code": "48216", "country": "US", "state": "MI", "display_address": ["1331 Trumbull St", "Detroit, MI 48216"]}, "phone": "+14806765193", "display_phone": "(480) 676-5193", "distance": 1428.9024818718149}, {"id": "CPxCS0GHckk_GjBtWEAw5Q", "alias": "crowne-plaza-detroit-downtown-riverfront-detroit", "name": "Crowne Plaza Detroit Downtown Riverfront", "image_url": "https://s3-media1.fl.yelpcdn.com/bphoto/RfCCK_dbqRnq0BIWTkUrTA/o.jpg", "is_closed": false, "url": "https://www.yelp.com/biz/crowne-plaza-detroit-downtown-riverfront-detroit?adjust_creative=IRGiHDHEMvnO3enKiUWF4A&utm_campaign=yelp_api_v3&utm_medium=api_v3_business_search&utm_source=IRGiHDHEMvnO3enKiUWF4A", "review_count": 166, "categories": [{"alias": "venues", "title": "Venues & Event Spaces"}, {"alias": "hotels", "title": "Hotels"}], "rating": 3.0, "coordinates": {"latitude": 42.3279, "longitude": -83.04772}, "transactions": [], "price": "$$", "location": {"address1": "2 Washington Blvd", "address2": "", "address3": "", "city": "Detroit", "zip_code": "48226", "country": "US", "state": "MI", "display_address": ["2 Washington Blvd", "Detroit, MI 48226"]}, "phone": "+13139650200", "display_phone": "(313) 965-0200", "distance": 423.8484399036425}, {"id": "0kTxd61oZ0NiTJ_S47hGdw", "alias": "motorcity-casino-hotel-detroit", "name": "MotorCity Casino Hotel", "image_url": "https://s3-media3.fl.yelpcdn.com/bphoto/kgCMTlrvILfcnY0lUZyOPg/o.jpg", "is_closed": false, "url": "https://www.yelp.com/biz/motorcity-casino-hotel-detroit?adjust_creative=IRGiHDHEMvnO3enKiUWF4A&utm_campaign=yelp_api_v3&utm_medium=api_v3_business_search&utm_source=IRGiHDHEMvnO3enKiUWF4A", "review_count": 215, "categories": [{"alias": "hotels", "title": "Hotels"}], "rating": 3.0, "coordinates": {"latitude": 42.338901, "longitude": -83.067778}, "transactions": [], "price": "$$$", "location": {"address1": "2901 Grand River Ave", "address2": "", "address3": "", "city": "Detroit", "zip_code": "48201", "country": "US", "state": "MI", "display_address": ["2901 Grand River Ave", "Detroit, MI 48201"]}, "phone": "+18667829622", "display_phone": "(866) 782-9622", "distance": 1773.0423555781588}, {"id": "10qMvlM8xjUUZYpUglYriw", "alias": "hilton-garden-inn-detroit-downtown-detroit-2", "name": "Hilton Garden Inn Detroit Downtown", "image_url": "https://s3-media4.fl.yelpcdn.com/bphoto/A2fhqfCDUlpJJqr6zz0UzA/o.jpg", "is_closed": false, "url": "https://www.yelp.com/biz/hilton-garden-inn-detroit-downtown-detroit-2?adjust_creative=IRGiHDHEMvnO3enKiUWF4A&utm_campaign=yelp_api_v3&utm_medium=api_v3_business_search&utm_source=IRGiHDHEMvnO3enKiUWF4A", "review_count": 90, "categories": [{"alias": "hotels", "title": "Hotels"}], "rating": 3.5, "coordinates": {"latitude": 42.3359146575659, "longitude": -83.0450447}, "transactions": [], "price": "$$", "location": {"address1": "351 Gratiot Ave", "address2": "", "address3": "", "city": "Detroit", "zip_code": "48226", "country": "US", "state": "MI", "display_address": ["351 Gratiot Ave", "Detroit, MI 48226"]}, "phone": "+13139670900", "display_phone": "(313) 967-0900", "distance": 551.8614733695351}, {"id": "UnqOuMUM3CTR7U2OVNOmCw", "alias": "shinola-hotel-detroit-2", "name": "Shinola Hotel", "image_url": "https://s3-media4.fl.yelpcdn.com/bphoto/rwt09PDS7CWl98Bxhf9gHQ/o.jpg", "is_closed": false, "url": "https://www.yelp.com/biz/shinola-hotel-detroit-2?adjust_creative=IRGiHDHEMvnO3enKiUWF4A&utm_campaign=yelp_api_v3&utm_medium=api_v3_business_search&utm_source=IRGiHDHEMvnO3enKiUWF4A", "review_count": 30, "categories": [{"alias": "hotels", "title": "Hotels"}], "rating": 4.0, "coordinates": {"latitude": 42.33502, "longitude": -83.04895}, "transactions": [], "location": {"address1": "1424 Woodward Ave", "address2": null, "address3": null, "city": "Detroit", "zip_code": "48226", "country": "US", "state": "MI", "display_address": ["1424 Woodward Ave", "Detroit, MI 48226"]}, "phone": "+13133563118", "display_phone": "(313) 356-3118", "distance": 329.3818397782728}, {"id": "wutGzfMxP54dKBOKzT-msg", "alias": "el-moore-detroit", "name": "El Moore Lodge & Residences", "image_url": "https://s3-media3.fl.yelpcdn.com/bphoto/EwMEhUTC1LK7ZKXyILt5ZQ/o.jpg", "is_closed": false, "url": "https://www.yelp.com/biz/el-moore-detroit?adjust_creative=IRGiHDHEMvnO3enKiUWF4A&utm_campaign=yelp_api_v3&utm_medium=api_v3_business_search&utm_source=IRGiHDHEMvnO3enKiUWF4A", "review_count": 20, "categories": [{"alias": "hotels", "title": "Hotels"}], "rating": 5.0, "coordinates": {"latitude": 42.3488384956088, "longitude": -83.0655535851116}, "transactions": [], "price": "$$$", "location": {"address1": "624 W Alexandrine St", "address2": "", "address3": null, "city": "Detroit", "zip_code": "48201", "country": "US", "state": "MI", "display_address": ["624 W Alexandrine St", "Detroit, MI 48201"]}, "phone": "+13139244374", "display_phone": "(313) 924-4374", "distance": 2365.214023914828}, {"id": "UH_J2_d5wnrS6w94m3oPiA", "alias": "greektown-casino-hotel-detroit-8", "name": "Greektown Casino-Hotel", "image_url": "https://s3-media2.fl.yelpcdn.com/bphoto/RTyhsRP4j23BPBPsBmNDLw/o.jpg", "is_closed": false, "url": "https://www.yelp.com/biz/greektown-casino-hotel-detroit-8?adjust_creative=IRGiHDHEMvnO3enKiUWF4A&utm_campaign=yelp_api_v3&utm_medium=api_v3_business_search&utm_source=IRGiHDHEMvnO3enKiUWF4A", "review_count": 173, "categories": [{"alias": "casinos", "title": "Casinos"}, {"alias": "hotels", "title": "Hotels"}], "rating": 2.5, "coordinates": {"latitude": 42.33451, "longitude": -83.04123}, "transactions": [], "price": "$$", "location": {"address1": "555 E Lafayette Ave", "address2": "", "address3": "", "city": "Detroit", "zip_code": "48226", "country": "US", "state": "MI", "display_address": ["555 E Lafayette Ave", "Detroit, MI 48226"]}, "phone": "+13132232999", "display_phone": "(313) 223-2999", "distance": 683.8713006101018}, {"id": "uLIsTVQxBLkQwv_AYMDyGg", "alias": "the-siren-hotel-detroit", "name": "The Siren Hotel", "image_url": "https://s3-media4.fl.yelpcdn.com/bphoto/hI5sWfvYGPArqbwaWA-lyw/o.jpg", "is_closed": false, "url": "https://www.yelp.com/biz/the-siren-hotel-detroit?adjust_creative=IRGiHDHEMvnO3enKiUWF4A&utm_campaign=yelp_api_v3&utm_medium=api_v3_business_search&utm_source=IRGiHDHEMvnO3enKiUWF4A", "review_count": 52, "categories": [{"alias": "hotels", "title": "Hotels"}], "rating": 3.5, "coordinates": {"latitude": 42.33571, "longitude": -83.04854}, "transactions": [], "price": "$$", "location": {"address1": "1509 Broadway St", "address2": "", "address3": null, "city": "Detroit", "zip_code": "48226", "country": "US", "state": "MI", "display_address": ["1509 Broadway St", "Detroit, MI 48226"]}, "phone": "+13132774736", "display_phone": "(313) 277-4736", "distance": 443.9405553289786}, {"id": "c61ZONgWldNCvbRZs5C_YQ", "alias": "courtyard-detroit-downtown-detroit-2", "name": "Courtyard Detroit Downtown", "image_url": "https://s3-media3.fl.yelpcdn.com/bphoto/MawVnMYVJWoTFdX4xrQYLA/o.jpg", "is_closed": false, "url": "https://www.yelp.com/biz/courtyard-detroit-downtown-detroit-2?adjust_creative=IRGiHDHEMvnO3enKiUWF4A&utm_campaign=yelp_api_v3&utm_medium=api_v3_business_search&utm_source=IRGiHDHEMvnO3enKiUWF4A", "review_count": 80, "categories": [{"alias": "hotels", "title": "Hotels"}], "rating": 3.0, "coordinates": {"latitude": 42.33051, "longitude": -83.04165}, "transactions": [], "price": "$$", "location": {"address1": "333 East Jefferson Ave", "address2": "", "address3": "", "city": "Detroit", "zip_code": "48226", "country": "US", "state": "MI", "display_address": ["333 East Jefferson Ave", "Detroit, MI 48226"]}, "phone": "+13132227700", "display_phone": "(313) 222-7700", "distance": 578.2408980312788}, {"id": "ocXlA0ESV7B2WWCIZ6brFQ", "alias": "element-detroit-at-the-metropolitan-detroit", "name": "Element Detroit at The Metropolitan", "image_url": "https://s3-media1.fl.yelpcdn.com/bphoto/qZ7CX7TcbcI0pXxtMSlprA/o.jpg", "is_closed": false, "url": "https://www.yelp.com/biz/element-detroit-at-the-metropolitan-detroit?adjust_creative=IRGiHDHEMvnO3enKiUWF4A&utm_campaign=yelp_api_v3&utm_medium=api_v3_business_search&utm_source=IRGiHDHEMvnO3enKiUWF4A", "review_count": 13, "categories": [{"alias": "hotels", "title": "Hotels"}, {"alias": "venues", "title": "Venues & Event Spaces"}], "rating": 4.5, "coordinates": {"latitude": 42.33546, "longitude": -83.04887}, "transactions": [], "location": {"address1": "33 John R Street", "address2": null, "address3": null, "city": "Detroit", "zip_code": "48226", "country": "US", "state": "MI", "display_address": ["33 John R Street", "Detroit, MI 48226"]}, "phone": "+13133240700", "display_phone": "(313) 324-0700", "distance": 418.53445344386387}, {"id": "meR7y7lI2MM04_MMkwx0pA", "alias": "hotel-indigo-detroit-downtown-detroit", "name": "Hotel Indigo Detroit Downtown", "image_url": "https://s3-media4.fl.yelpcdn.com/bphoto/-RArEvcqdoA2QoEznLxjUg/o.jpg", "is_closed": false, "url": "https://www.yelp.com/biz/hotel-indigo-detroit-downtown-detroit?adjust_creative=IRGiHDHEMvnO3enKiUWF4A&utm_campaign=yelp_api_v3&utm_medium=api_v3_business_search&utm_source=IRGiHDHEMvnO3enKiUWF4A", "review_count": 100, "categories": [{"alias": "hotels", "title": "Hotels"}, {"alias": "venues", "title": "Venues & Event Spaces"}], "rating": 2.5, "coordinates": {"latitude": 42.33085, "longitude": -83.05052}, "transactions": [], "price": "$$", "location": {"address1": "1020 Washington Blvd", "address2": "", "address3": "", "city": "Detroit", "zip_code": "48226", "country": "US", "state": "MI", "display_address": ["1020 Washington Blvd", "Detroit, MI 48226"]}, "phone": "+13138877000", "display_phone": "(313) 887-7000", "distance": 161.60263350072904}, {"id": "_0wu_GsvfbfFSIolaCQ-_Q", "alias": "best-western-plus-waterfront-hotel-windsor", "name": "Best Western Plus Waterfront Hotel", "image_url": "https://s3-media1.fl.yelpcdn.com/bphoto/Va_DYmNMtlGfk5LfRjI3oQ/o.jpg", "is_closed": false, "url": "https://www.yelp.com/biz/best-western-plus-waterfront-hotel-windsor?adjust_creative=IRGiHDHEMvnO3enKiUWF4A&utm_campaign=yelp_api_v3&utm_medium=api_v3_business_search&utm_source=IRGiHDHEMvnO3enKiUWF4A", "review_count": 47, "categories": [{"alias": "hotels", "title": "Hotels"}], "rating": 3.0, "coordinates": {"latitude": 42.3188056, "longitude": -83.0428619}, "transactions": [], "price": "$$", "location": {"address1": "277 Riverside Dr W", "address2": null, "address3": null, "city": "Windsor", "zip_code": "N9A 5K4", "country": "CA", "state": "ON", "display_address": ["277 Riverside Dr W", "Windsor, ON N9A 5K4", "Canada"]}, "phone": "+15199735555", "display_phone": "+1 519-973-5555", "distance": 1505.9026952055572}], "total": 44, "region": {"center": {"longitude": -83.048546, "latitude": 42.33168}}}, "lon_-83.049179_and_lat_42.33297": {"businesses": [{"id": "HbEwyxLIAwc8tx8Ll9laOQ", "alias": "the-westin-book-cadillac-detroit-detroit", "name": "The Westin Book Cadillac Detroit", "image_url": "https://s3-media2.fl.yelpcdn.com/bphoto/NdhwNs3FqYg4-HllMrUieQ/o.jpg", "is_closed": false, "url": "https://www.yelp.com/biz/the-westin-book-cadillac-detroit-detroit?adjust_creative=IRGiHDHEMvnO3enKiUWF4A&utm_campaign=yelp_api_v3&utm_medium=api_v3_business_search&utm_source=IRGiHDHEMvnO3enKiUWF4A", "review_count": 267, "categories": [{"alias": "hotels", "title": "Hotels"}, {"alias": "venues", "title": "Venues & Event Spaces"}], "rating": 4.0, "coordinates": {"latitude": 42.33242, "longitude": -83.05047}, "transactions": [], "price": "$$$", "location": {"address1": "1114 Washington Blvd", "address2": "", "address3": "", "city": "Detroit", "zip_code": "48226", "country": "US", "state": "MI", "display_address": ["1114 Washington Blvd", "Detroit, MI 48226"]}, "phone": "+13134421600", "display_phone": "(313) 442-1600", "distance": 144.85896757694343}, {"id": "t_2WmzFuwnYEpzfSKABYgg", "alias": "detroit-foundation-hotel-detroit", "name": "Detroit Foundation Hotel", "image_url": "https://s3-media3.fl.yelpcdn.com/bphoto/GBL4Pu0M2kZVi0iZLtsmrA/o.jpg", "is_closed": false, "url": "https://www.yelp.com/biz/detroit-foundation-hotel-detroit?adjust_creative=IRGiHDHEMvnO3enKiUWF4A&utm_campaign=yelp_api_v3&utm_medium=api_v3_business_search&utm_source=IRGiHDHEMvnO3enKiUWF4A", "review_count": 90, "categories": [{"alias": "hotels", "title": "Hotels"}], "rating": 4.5, "coordinates": {"latitude": 42.328328, "longitude": -83.048352}, "transactions": [], "price": "$$$", "location": {"address1": "250 W Larned St", "address2": "", "address3": null, "city": "Detroit", "zip_code": "48226", "country": "US", "state": "MI", "display_address": ["250 W Larned St", "Detroit, MI 48226"]}, "phone": "+13138005500", "display_phone": "(313) 800-5500", "distance": 520.6238295297687}, {"id": "ByOX-Ik4Jhr3i_Um2xO4uw", "alias": "aloft-detroit-at-the-david-whitney-detroit", "name": "Aloft Detroit at the David Whitney", "image_url": "https://s3-media2.fl.yelpcdn.com/bphoto/Jr1u6yJS32r2QINNKqKRHw/o.jpg", "is_closed": false, "url": "https://www.yelp.com/biz/aloft-detroit-at-the-david-whitney-detroit?adjust_creative=IRGiHDHEMvnO3enKiUWF4A&utm_campaign=yelp_api_v3&utm_medium=api_v3_business_search&utm_source=IRGiHDHEMvnO3enKiUWF4A", "review_count": 110, "categories": [{"alias": "hotels", "title": "Hotels"}, {"alias": "venues", "title": "Venues & Event Spaces"}], "rating": 4.0, "coordinates": {"latitude": 42.33581023165795, "longitude": -83.05050944309794}, "transactions": [], "price": "$$", "location": {"address1": "One Park Ave", "address2": null, "address3": null, "city": "Detroit", "zip_code": "48226", "country": "US", "state": "MI", "display_address": ["One Park Ave", "Detroit, MI 48226"]}, "phone": "+13132371700", "display_phone": "(313) 237-1700", "distance": 334.2173802358181}, {"id": "EzgdsNgqyqnMI4LjN90oww", "alias": "mgm-grand-detroit-detroit-2", "name": "MGM Grand Detroit", "image_url": "https://s3-media4.fl.yelpcdn.com/bphoto/cNZ0vKlW0vdDcpTVMXHn_Q/o.jpg", "is_closed": false, "url": "https://www.yelp.com/biz/mgm-grand-detroit-detroit-2?adjust_creative=IRGiHDHEMvnO3enKiUWF4A&utm_campaign=yelp_api_v3&utm_medium=api_v3_business_search&utm_source=IRGiHDHEMvnO3enKiUWF4A", "review_count": 315, "categories": [{"alias": "hotels", "title": "Hotels"}, {"alias": "casinos", "title": "Casinos"}], "rating": 3.0, "coordinates": {"latitude": 42.333563, "longitude": -83.059204}, "transactions": [], "price": "$$$", "location": {"address1": "1777 3rd Ave", "address2": "", "address3": "", "city": "Detroit", "zip_code": "48226", "country": "US", "state": "MI", "display_address": ["1777 3rd Ave", "Detroit, MI 48226"]}, "phone": "+18778882121", "display_phone": "(877) 888-2121", "distance": 826.6855984942636}, {"id": "ptFM4blt20bLc80avvXfHw", "alias": "doubletree-suites-by-hilton-hotel-detroit-downtown-fort-shelby-detroit-3", "name": "DoubleTree Suites by Hilton Hotel Detroit Downtown - Fort Shelby", "image_url": "https://s3-media3.fl.yelpcdn.com/bphoto/1adnYdfgkGNfyK18dqkBMA/o.jpg", "is_closed": false, "url": "https://www.yelp.com/biz/doubletree-suites-by-hilton-hotel-detroit-downtown-fort-shelby-detroit-3?adjust_creative=IRGiHDHEMvnO3enKiUWF4A&utm_campaign=yelp_api_v3&utm_medium=api_v3_business_search&utm_source=IRGiHDHEMvnO3enKiUWF4A", "review_count": 110, "categories": [{"alias": "hotels", "title": "Hotels"}], "rating": 3.5, "coordinates": {"latitude": 42.3293497, "longitude": -83.0526689}, "transactions": [], "price": "$$", "location": {"address1": "525 W Lafayette Blvd", "address2": "", "address3": "", "city": "Detroit", "zip_code": "48226", "country": "US", "state": "MI", "display_address": ["525 W Lafayette Blvd", "Detroit, MI 48226"]}, "phone": "+13139635600", "display_phone": "(313) 963-5600", "distance": 494.3202465054515}, {"id": "iefl5nALcLu7EKzcFjUaGQ", "alias": "the-detroit-club-detroit", "name": "The Detroit Club", "image_url": "https://s3-media1.fl.yelpcdn.com/bphoto/Hbr8OhfgJeqKQvIOw7GnRQ/o.jpg", "is_closed": false, "url": "https://www.yelp.com/biz/the-detroit-club-detroit?adjust_creative=IRGiHDHEMvnO3enKiUWF4A&utm_campaign=yelp_api_v3&utm_medium=api_v3_business_search&utm_source=IRGiHDHEMvnO3enKiUWF4A", "review_count": 69, "categories": [{"alias": "social_clubs", "title": "Social Clubs"}, {"alias": "newamerican", "title": "American (New)"}, {"alias": "hotels", "title": "Hotels"}], "rating": 4.0, "coordinates": {"latitude": 42.329707610564, "longitude": -83.050738914188}, "transactions": ["delivery"], "price": "$$$", "location": {"address1": "712 Cass Ave", "address2": "", "address3": "", "city": "Detroit", "zip_code": "48226", "country": "US", "state": "MI", "display_address": ["712 Cass Ave", "Detroit, MI 48226"]}, "phone": "+13133383222", "display_phone": "(313) 338-3222", "distance": 384.75690461910176}, {"id": "WBs1UZcgLc5aThw5E6w3QQ", "alias": "detroit-marriott-at-the-renaissance-center-detroit", "name": "Detroit Marriott at the Renaissance Center", "image_url": "https://s3-media3.fl.yelpcdn.com/bphoto/tj_6VDqfeZTOs6NIkOwl2A/o.jpg", "is_closed": false, "url": "https://www.yelp.com/biz/detroit-marriott-at-the-renaissance-center-detroit?adjust_creative=IRGiHDHEMvnO3enKiUWF4A&utm_campaign=yelp_api_v3&utm_medium=api_v3_business_search&utm_source=IRGiHDHEMvnO3enKiUWF4A", "review_count": 327, "categories": [{"alias": "hotels", "title": "Hotels"}, {"alias": "venues", "title": "Venues & Event Spaces"}], "rating": 3.0, "coordinates": {"latitude": 42.3288965900366, "longitude": -83.0393888988237}, "transactions": [], "price": "$$$", "location": {"address1": "400 Renaissance Ctr", "address2": "400 Renaissance Dr", "address3": "", "city": "Detroit", "zip_code": "48243", "country": "US", "state": "MI", "display_address": ["400 Renaissance Ctr", "400 Renaissance Dr", "Detroit, MI 48243"]}, "phone": "+13135688000", "display_phone": "(313) 568-8000", "distance": 923.4803495284649}, {"id": "fmAjKpZvcaVx63EBdwVGnw", "alias": "atheneum-suite-hotel-detroit", "name": "Atheneum Suite Hotel", "image_url": "https://s3-media3.fl.yelpcdn.com/bphoto/ZMGjhWxGrJtd-VntAT0ndA/o.jpg", "is_closed": false, "url": "https://www.yelp.com/biz/atheneum-suite-hotel-detroit?adjust_creative=IRGiHDHEMvnO3enKiUWF4A&utm_campaign=yelp_api_v3&utm_medium=api_v3_business_search&utm_source=IRGiHDHEMvnO3enKiUWF4A", "review_count": 161, "categories": [{"alias": "hotels", "title": "Hotels"}], "rating": 3.0, "coordinates": {"latitude": 42.333978377866636, "longitude": -83.0429429023152}, "transactions": [], "price": "$$", "location": {"address1": "1000 Brush St", "address2": "", "address3": "", "city": "Detroit", "zip_code": "48226", "country": "US", "state": "MI", "display_address": ["1000 Brush St", "Detroit, MI 48226"]}, "phone": "+13139622323", "display_phone": "(313) 962-2323", "distance": 524.7234048672581}, {"id": "jLgHyIJctBnpL2Y6XVUlrw", "alias": "trumbull-and-porter-an-ascend-hotel-collection-member-detroit", "name": "Trumbull and Porter, an Ascend Hotel Collection Member", "image_url": "https://s3-media2.fl.yelpcdn.com/bphoto/Vf3TnfA5kxd1Gw1YyhU6_g/o.jpg", "is_closed": false, "url": "https://www.yelp.com/biz/trumbull-and-porter-an-ascend-hotel-collection-member-detroit?adjust_creative=IRGiHDHEMvnO3enKiUWF4A&utm_campaign=yelp_api_v3&utm_medium=api_v3_business_search&utm_source=IRGiHDHEMvnO3enKiUWF4A", "review_count": 123, "categories": [{"alias": "hotels", "title": "Hotels"}], "rating": 3.5, "coordinates": {"latitude": 42.3271570642108, "longitude": -83.0648159980774}, "transactions": [], "price": "$$", "location": {"address1": "1331 Trumbull St", "address2": "", "address3": "", "city": "Detroit", "zip_code": "48216", "country": "US", "state": "MI", "display_address": ["1331 Trumbull St", "Detroit, MI 48216"]}, "phone": "+14806765193", "display_phone": "(480) 676-5193", "distance": 1438.7843621235145}, {"id": "0kTxd61oZ0NiTJ_S47hGdw", "alias": "motorcity-casino-hotel-detroit", "name": "MotorCity Casino Hotel", "image_url": "https://s3-media3.fl.yelpcdn.com/bphoto/kgCMTlrvILfcnY0lUZyOPg/o.jpg", "is_closed": false, "url": "https://www.yelp.com/biz/motorcity-casino-hotel-detroit?adjust_creative=IRGiHDHEMvnO3enKiUWF4A&utm_campaign=yelp_api_v3&utm_medium=api_v3_business_search&utm_source=IRGiHDHEMvnO3enKiUWF4A", "review_count": 215, "categories": [{"alias": "hotels", "title": "Hotels"}], "rating": 3.0, "coordinates": {"latitude": 42.338901, "longitude": -83.067778}, "transactions": [], "price": "$$$", "location": {"address1": "2901 Grand River Ave", "address2": "", "address3": "", "city": "Detroit", "zip_code": "48201", "country": "US", "state": "MI", "display_address": ["2901 Grand River Ave", "Detroit, MI 48201"]}, "phone": "+18667829622", "display_phone": "(866) 782-9622", "distance": 1664.9514508153852}, {"id": "UnqOuMUM3CTR7U2OVNOmCw", "alias": "shinola-hotel-detroit-2", "name": "Shinola Hotel", "image_url": "https://s3-media4.fl.yelpcdn.com/bphoto/rwt09PDS7CWl98Bxhf9gHQ/o.jpg", "is_closed": false, "url": "https://www.yelp.com/biz/shinola-hotel-detroit-2?adjust_creative=IRGiHDHEMvnO3enKiUWF4A&utm_campaign=yelp_api_v3&utm_medium=api_v3_business_search&utm_source=IRGiHDHEMvnO3enKiUWF4A", "review_count": 30, "categories": [{"alias": "hotels", "title": "Hotels"}], "rating": 4.0, "coordinates": {"latitude": 42.33502, "longitude": -83.04895}, "transactions": [], "location": {"address1": "1424 Woodward Ave", "address2": null, "address3": null, "city": "Detroit", "zip_code": "48226", "country": "US", "state": "MI", "display_address": ["1424 Woodward Ave", "Detroit, MI 48226"]}, "phone": "+13133563118", "display_phone": "(313) 356-3118", "distance": 190.63562486919017}, {"id": "10qMvlM8xjUUZYpUglYriw", "alias": "hilton-garden-inn-detroit-downtown-detroit-2", "name": "Hilton Garden Inn Detroit Downtown", "image_url": "https://s3-media4.fl.yelpcdn.com/bphoto/A2fhqfCDUlpJJqr6zz0UzA/o.jpg", "is_closed": false, "url": "https://www.yelp.com/biz/hilton-garden-inn-detroit-downtown-detroit-2?adjust_creative=IRGiHDHEMvnO3enKiUWF4A&utm_campaign=yelp_api_v3&utm_medium=api_v3_business_search&utm_source=IRGiHDHEMvnO3enKiUWF4A", "review_count": 90, "categories": [{"alias": "hotels", "title": "Hotels"}], "rating": 3.5, "coordinates": {"latitude": 42.3359146575659, "longitude": -83.0450447}, "transactions": [], "price": "$$", "location": {"address1": "351 Gratiot Ave", "address2": "", "address3": "", "city": "Detroit", "zip_code": "48226", "country": "US", "state": "MI", "display_address": ["351 Gratiot Ave", "Detroit, MI 48226"]}, "phone": "+13139670900", "display_phone": "(313) 967-0900", "distance": 471.9072188243834}, {"id": "CPxCS0GHckk_GjBtWEAw5Q", "alias": "crowne-plaza-detroit-downtown-riverfront-detroit", "name": "Crowne Plaza Detroit Downtown Riverfront", "image_url": "https://s3-media1.fl.yelpcdn.com/bphoto/RfCCK_dbqRnq0BIWTkUrTA/o.jpg", "is_closed": false, "url": "https://www.yelp.com/biz/crowne-plaza-detroit-downtown-riverfront-detroit?adjust_creative=IRGiHDHEMvnO3enKiUWF4A&utm_campaign=yelp_api_v3&utm_medium=api_v3_business_search&utm_source=IRGiHDHEMvnO3enKiUWF4A", "review_count": 166, "categories": [{"alias": "venues", "title": "Venues & Event Spaces"}, {"alias": "hotels", "title": "Hotels"}], "rating": 3.0, "coordinates": {"latitude": 42.3279, "longitude": -83.04772}, "transactions": [], "price": "$$", "location": {"address1": "2 Washington Blvd", "address2": "", "address3": "", "city": "Detroit", "zip_code": "48226", "country": "US", "state": "MI", "display_address": ["2 Washington Blvd", "Detroit, MI 48226"]}, "phone": "+13139650200", "display_phone": "(313) 965-0200", "distance": 574.130318257843}, {"id": "wutGzfMxP54dKBOKzT-msg", "alias": "el-moore-detroit", "name": "El Moore Lodge & Residences", "image_url": "https://s3-media3.fl.yelpcdn.com/bphoto/EwMEhUTC1LK7ZKXyILt5ZQ/o.jpg", "is_closed": false, "url": "https://www.yelp.com/biz/el-moore-detroit?adjust_creative=IRGiHDHEMvnO3enKiUWF4A&utm_campaign=yelp_api_v3&utm_medium=api_v3_business_search&utm_source=IRGiHDHEMvnO3enKiUWF4A", "review_count": 20, "categories": [{"alias": "hotels", "title": "Hotels"}], "rating": 5.0, "coordinates": {"latitude": 42.3488384956088, "longitude": -83.0655535851116}, "transactions": [], "price": "$$$", "location": {"address1": "624 W Alexandrine St", "address2": "", "address3": null, "city": "Detroit", "zip_code": "48201", "country": "US", "state": "MI", "display_address": ["624 W Alexandrine St", "Detroit, MI 48201"]}, "phone": "+13139244374", "display_phone": "(313) 924-4374", "distance": 2219.1612904219887}, {"id": "UH_J2_d5wnrS6w94m3oPiA", "alias": "greektown-casino-hotel-detroit-8", "name": "Greektown Casino-Hotel", "image_url": "https://s3-media2.fl.yelpcdn.com/bphoto/RTyhsRP4j23BPBPsBmNDLw/o.jpg", "is_closed": false, "url": "https://www.yelp.com/biz/greektown-casino-hotel-detroit-8?adjust_creative=IRGiHDHEMvnO3enKiUWF4A&utm_campaign=yelp_api_v3&utm_medium=api_v3_business_search&utm_source=IRGiHDHEMvnO3enKiUWF4A", "review_count": 173, "categories": [{"alias": "casinos", "title": "Casinos"}, {"alias": "hotels", "title": "Hotels"}], "rating": 2.5, "coordinates": {"latitude": 42.33451, "longitude": -83.04123}, "transactions": [], "price": "$$", "location": {"address1": "555 E Lafayette Ave", "address2": "", "address3": "", "city": "Detroit", "zip_code": "48226", "country": "US", "state": "MI", "display_address": ["555 E Lafayette Ave", "Detroit, MI 48226"]}, "phone": "+13132232999", "display_phone": "(313) 223-2999", "distance": 677.9388276448133}, {"id": "uLIsTVQxBLkQwv_AYMDyGg", "alias": "the-siren-hotel-detroit", "name": "The Siren Hotel", "image_url": "https://s3-media4.fl.yelpcdn.com/bphoto/hI5sWfvYGPArqbwaWA-lyw/o.jpg", "is_closed": false, "url": "https://www.yelp.com/biz/the-siren-hotel-detroit?adjust_creative=IRGiHDHEMvnO3enKiUWF4A&utm_campaign=yelp_api_v3&utm_medium=api_v3_business_search&utm_source=IRGiHDHEMvnO3enKiUWF4A", "review_count": 52, "categories": [{"alias": "hotels", "title": "Hotels"}], "rating": 3.5, "coordinates": {"latitude": 42.33571, "longitude": -83.04854}, "transactions": [], "price": "$$", "location": {"address1": "1509 Broadway St", "address2": "", "address3": null, "city": "Detroit", "zip_code": "48226", "country": "US", "state": "MI", "display_address": ["1509 Broadway St", "Detroit, MI 48226"]}, "phone": "+13132774736", "display_phone": "(313) 277-4736", "distance": 303.973774123567}, {"id": "c61ZONgWldNCvbRZs5C_YQ", "alias": "courtyard-detroit-downtown-detroit-2", "name": "Courtyard Detroit Downtown", "image_url": "https://s3-media3.fl.yelpcdn.com/bphoto/MawVnMYVJWoTFdX4xrQYLA/o.jpg", "is_closed": false, "url": "https://www.yelp.com/biz/courtyard-detroit-downtown-detroit-2?adjust_creative=IRGiHDHEMvnO3enKiUWF4A&utm_campaign=yelp_api_v3&utm_medium=api_v3_business_search&utm_source=IRGiHDHEMvnO3enKiUWF4A", "review_count": 80, "categories": [{"alias": "hotels", "title": "Hotels"}], "rating": 3.0, "coordinates": {"latitude": 42.33051, "longitude": -83.04165}, "transactions": [], "price": "$$", "location": {"address1": "333 East Jefferson Ave", "address2": "", "address3": "", "city": "Detroit", "zip_code": "48226", "country": "US", "state": "MI", "display_address": ["333 East Jefferson Ave", "Detroit, MI 48226"]}, "phone": "+13132227700", "display_phone": "(313) 222-7700", "distance": 672.9377750923105}, {"id": "ocXlA0ESV7B2WWCIZ6brFQ", "alias": "element-detroit-at-the-metropolitan-detroit", "name": "Element Detroit at The Metropolitan", "image_url": "https://s3-media1.fl.yelpcdn.com/bphoto/qZ7CX7TcbcI0pXxtMSlprA/o.jpg", "is_closed": false, "url": "https://www.yelp.com/biz/element-detroit-at-the-metropolitan-detroit?adjust_creative=IRGiHDHEMvnO3enKiUWF4A&utm_campaign=yelp_api_v3&utm_medium=api_v3_business_search&utm_source=IRGiHDHEMvnO3enKiUWF4A", "review_count": 13, "categories": [{"alias": "hotels", "title": "Hotels"}, {"alias": "venues", "title": "Venues & Event Spaces"}], "rating": 4.5, "coordinates": {"latitude": 42.33546, "longitude": -83.04887}, "transactions": [], "location": {"address1": "33 John R Street", "address2": null, "address3": null, "city": "Detroit", "zip_code": "48226", "country": "US", "state": "MI", "display_address": ["33 John R Street", "Detroit, MI 48226"]}, "phone": "+13133240700", "display_phone": "(313) 324-0700", "distance": 275.6878370175898}, {"id": "meR7y7lI2MM04_MMkwx0pA", "alias": "hotel-indigo-detroit-downtown-detroit", "name": "Hotel Indigo Detroit Downtown", "image_url": "https://s3-media4.fl.yelpcdn.com/bphoto/-RArEvcqdoA2QoEznLxjUg/o.jpg", "is_closed": false, "url": "https://www.yelp.com/biz/hotel-indigo-detroit-downtown-detroit?adjust_creative=IRGiHDHEMvnO3enKiUWF4A&utm_campaign=yelp_api_v3&utm_medium=api_v3_business_search&utm_source=IRGiHDHEMvnO3enKiUWF4A", "review_count": 100, "categories": [{"alias": "hotels", "title": "Hotels"}, {"alias": "venues", "title": "Venues & Event Spaces"}], "rating": 2.5, "coordinates": {"latitude": 42.33085, "longitude": -83.05052}, "transactions": [], "price": "$$", "location": {"address1": "1020 Washington Blvd", "address2": "", "address3": "", "city": "Detroit", "zip_code": "48226", "country": "US", "state": "MI", "display_address": ["1020 Washington Blvd", "Detroit, MI 48226"]}, "phone": "+13138877000", "display_phone": "(313) 887-7000", "distance": 201.13977669614889}, {"id": "_0wu_GsvfbfFSIolaCQ-_Q", "alias": "best-western-plus-waterfront-hotel-windsor", "name": "Best Western Plus Waterfront Hotel", "image_url": "https://s3-media1.fl.yelpcdn.com/bphoto/Va_DYmNMtlGfk5LfRjI3oQ/o.jpg", "is_closed": false, "url": "https://www.yelp.com/biz/best-western-plus-waterfront-hotel-windsor?adjust_creative=IRGiHDHEMvnO3enKiUWF4A&utm_campaign=yelp_api_v3&utm_medium=api_v3_business_search&utm_source=IRGiHDHEMvnO3enKiUWF4A", "review_count": 47, "categories": [{"alias": "hotels", "title": "Hotels"}], "rating": 3.0, "coordinates": {"latitude": 42.3188056, "longitude": -83.0428619}, "transactions": [], "price": "$$", "location": {"address1": "277 Riverside Dr W", "address2": null, "address3": null, "city": "Windsor", "zip_code": "N9A 5K4", "country": "CA", "state": "ON", "display_address": ["277 Riverside Dr W", "Windsor, ON N9A 5K4", "Canada"]}, "phone": "+15199735555", "display_phone": "+1 519-973-5555", "distance": 1658.4170307870231}], "total": 44, "region": {"center": {"longitude": -83.049179, "latitude": 42.33297}}}, "lon_-83.050522_and_lat_42.330551": {"businesses": [{"id": "HbEwyxLIAwc8tx8Ll9laOQ", "alias": "the-westin-book-cadillac-detroit-detroit", "name": "The Westin Book Cadillac Detroit", "image_url": "https://s3-media2.fl.yelpcdn.com/bphoto/NdhwNs3FqYg4-HllMrUieQ/o.jpg", "is_closed": false, "url": "https://www.yelp.com/biz/the-westin-book-cadillac-detroit-detroit?adjust_creative=IRGiHDHEMvnO3enKiUWF4A&utm_campaign=yelp_api_v3&utm_medium=api_v3_business_search&utm_source=IRGiHDHEMvnO3enKiUWF4A", "review_count": 267, "categories": [{"alias": "hotels", "title": "Hotels"}, {"alias": "venues", "title": "Venues & Event Spaces"}], "rating": 4.0, "coordinates": {"latitude": 42.33242, "longitude": -83.05047}, "transactions": [], "price": "$$$", "location": {"address1": "1114 Washington Blvd", "address2": "", "address3": "", "city": "Detroit", "zip_code": "48226", "country": "US", "state": "MI", "display_address": ["1114 Washington Blvd", "Detroit, MI 48226"]}, "phone": "+13134421600", "display_phone": "(313) 442-1600", "distance": 160.81530235140906}, {"id": "t_2WmzFuwnYEpzfSKABYgg", "alias": "detroit-foundation-hotel-detroit", "name": "Detroit Foundation Hotel", "image_url": "https://s3-media3.fl.yelpcdn.com/bphoto/GBL4Pu0M2kZVi0iZLtsmrA/o.jpg", "is_closed": false, "url": "https://www.yelp.com/biz/detroit-foundation-hotel-detroit?adjust_creative=IRGiHDHEMvnO3enKiUWF4A&utm_campaign=yelp_api_v3&utm_medium=api_v3_business_search&utm_source=IRGiHDHEMvnO3enKiUWF4A", "review_count": 90, "categories": [{"alias": "hotels", "title": "Hotels"}], "rating": 4.5, "coordinates": {"latitude": 42.328328, "longitude": -83.048352}, "transactions": [], "price": "$$$", "location": {"address1": "250 W Larned St", "address2": "", "address3": null, "city": "Detroit", "zip_code": "48226", "country": "US", "state": "MI", "display_address": ["250 W Larned St", "Detroit, MI 48226"]}, "phone": "+13138005500", "display_phone": "(313) 800-5500", "distance": 304.830842695178}, {"id": "ByOX-Ik4Jhr3i_Um2xO4uw", "alias": "aloft-detroit-at-the-david-whitney-detroit", "name": "Aloft Detroit at the David Whitney", "image_url": "https://s3-media2.fl.yelpcdn.com/bphoto/Jr1u6yJS32r2QINNKqKRHw/o.jpg", "is_closed": false, "url": "https://www.yelp.com/biz/aloft-detroit-at-the-david-whitney-detroit?adjust_creative=IRGiHDHEMvnO3enKiUWF4A&utm_campaign=yelp_api_v3&utm_medium=api_v3_business_search&utm_source=IRGiHDHEMvnO3enKiUWF4A", "review_count": 110, "categories": [{"alias": "hotels", "title": "Hotels"}, {"alias": "venues", "title": "Venues & Event Spaces"}], "rating": 4.0, "coordinates": {"latitude": 42.33581023165795, "longitude": -83.05050944309794}, "transactions": [], "price": "$$", "location": {"address1": "One Park Ave", "address2": null, "address3": null, "city": "Detroit", "zip_code": "48226", "country": "US", "state": "MI", "display_address": ["One Park Ave", "Detroit, MI 48226"]}, "phone": "+13132371700", "display_phone": "(313) 237-1700", "distance": 584.8001407077936}, {"id": "EzgdsNgqyqnMI4LjN90oww", "alias": "mgm-grand-detroit-detroit-2", "name": "MGM Grand Detroit", "image_url": "https://s3-media4.fl.yelpcdn.com/bphoto/cNZ0vKlW0vdDcpTVMXHn_Q/o.jpg", "is_closed": false, "url": "https://www.yelp.com/biz/mgm-grand-detroit-detroit-2?adjust_creative=IRGiHDHEMvnO3enKiUWF4A&utm_campaign=yelp_api_v3&utm_medium=api_v3_business_search&utm_source=IRGiHDHEMvnO3enKiUWF4A", "review_count": 315, "categories": [{"alias": "hotels", "title": "Hotels"}, {"alias": "casinos", "title": "Casinos"}], "rating": 3.0, "coordinates": {"latitude": 42.333563, "longitude": -83.059204}, "transactions": [], "price": "$$$", "location": {"address1": "1777 3rd Ave", "address2": "", "address3": "", "city": "Detroit", "zip_code": "48226", "country": "US", "state": "MI", "display_address": ["1777 3rd Ave", "Detroit, MI 48226"]}, "phone": "+18778882121", "display_phone": "(877) 888-2121", "distance": 788.3509580579678}, {"id": "ptFM4blt20bLc80avvXfHw", "alias": "doubletree-suites-by-hilton-hotel-detroit-downtown-fort-shelby-detroit-3", "name": "DoubleTree Suites by Hilton Hotel Detroit Downtown - Fort Shelby", "image_url": "https://s3-media3.fl.yelpcdn.com/bphoto/1adnYdfgkGNfyK18dqkBMA/o.jpg", "is_closed": false, "url": "https://www.yelp.com/biz/doubletree-suites-by-hilton-hotel-detroit-downtown-fort-shelby-detroit-3?adjust_creative=IRGiHDHEMvnO3enKiUWF4A&utm_campaign=yelp_api_v3&utm_medium=api_v3_business_search&utm_source=IRGiHDHEMvnO3enKiUWF4A", "review_count": 110, "categories": [{"alias": "hotels", "title": "Hotels"}], "rating": 3.5, "coordinates": {"latitude": 42.3293497, "longitude": -83.0526689}, "transactions": [], "price": "$$", "location": {"address1": "525 W Lafayette Blvd", "address2": "", "address3": "", "city": "Detroit", "zip_code": "48226", "country": "US", "state": "MI", "display_address": ["525 W Lafayette Blvd", "Detroit, MI 48226"]}, "phone": "+13139635600", "display_phone": "(313) 963-5600", "distance": 221.33614722084235}, {"id": "iefl5nALcLu7EKzcFjUaGQ", "alias": "the-detroit-club-detroit", "name": "The Detroit Club", "image_url": "https://s3-media1.fl.yelpcdn.com/bphoto/Hbr8OhfgJeqKQvIOw7GnRQ/o.jpg", "is_closed": false, "url": "https://www.yelp.com/biz/the-detroit-club-detroit?adjust_creative=IRGiHDHEMvnO3enKiUWF4A&utm_campaign=yelp_api_v3&utm_medium=api_v3_business_search&utm_source=IRGiHDHEMvnO3enKiUWF4A", "review_count": 69, "categories": [{"alias": "social_clubs", "title": "Social Clubs"}, {"alias": "newamerican", "title": "American (New)"}, {"alias": "hotels", "title": "Hotels"}], "rating": 4.0, "coordinates": {"latitude": 42.329707610564, "longitude": -83.050738914188}, "transactions": ["delivery"], "price": "$$$", "location": {"address1": "712 Cass Ave", "address2": "", "address3": "", "city": "Detroit", "zip_code": "48226", "country": "US", "state": "MI", "display_address": ["712 Cass Ave", "Detroit, MI 48226"]}, "phone": "+13133383222", "display_phone": "(313) 338-3222", "distance": 95.46065578751741}, {"id": "WBs1UZcgLc5aThw5E6w3QQ", "alias": "detroit-marriott-at-the-renaissance-center-detroit", "name": "Detroit Marriott at the Renaissance Center", "image_url": "https://s3-media3.fl.yelpcdn.com/bphoto/tj_6VDqfeZTOs6NIkOwl2A/o.jpg", "is_closed": false, "url": "https://www.yelp.com/biz/detroit-marriott-at-the-renaissance-center-detroit?adjust_creative=IRGiHDHEMvnO3enKiUWF4A&utm_campaign=yelp_api_v3&utm_medium=api_v3_business_search&utm_source=IRGiHDHEMvnO3enKiUWF4A", "review_count": 327, "categories": [{"alias": "hotels", "title": "Hotels"}, {"alias": "venues", "title": "Venues & Event Spaces"}], "rating": 3.0, "coordinates": {"latitude": 42.3288965900366, "longitude": -83.0393888988237}, "transactions": [], "price": "$$$", "location": {"address1": "400 Renaissance Ctr", "address2": "400 Renaissance Dr", "address3": "", "city": "Detroit", "zip_code": "48243", "country": "US", "state": "MI", "display_address": ["400 Renaissance Ctr", "400 Renaissance Dr", "Detroit, MI 48243"]}, "phone": "+13135688000", "display_phone": "(313) 568-8000", "distance": 933.4947560787763}, {"id": "jLgHyIJctBnpL2Y6XVUlrw", "alias": "trumbull-and-porter-an-ascend-hotel-collection-member-detroit", "name": "Trumbull and Porter, an Ascend Hotel Collection Member", "image_url": "https://s3-media2.fl.yelpcdn.com/bphoto/Vf3TnfA5kxd1Gw1YyhU6_g/o.jpg", "is_closed": false, "url": "https://www.yelp.com/biz/trumbull-and-porter-an-ascend-hotel-collection-member-detroit?adjust_creative=IRGiHDHEMvnO3enKiUWF4A&utm_campaign=yelp_api_v3&utm_medium=api_v3_business_search&utm_source=IRGiHDHEMvnO3enKiUWF4A", "review_count": 123, "categories": [{"alias": "hotels", "title": "Hotels"}], "rating": 3.5, "coordinates": {"latitude": 42.3271570642108, "longitude": -83.0648159980774}, "transactions": [], "price": "$$", "location": {"address1": "1331 Trumbull St", "address2": "", "address3": "", "city": "Detroit", "zip_code": "48216", "country": "US", "state": "MI", "display_address": ["1331 Trumbull St", "Detroit, MI 48216"]}, "phone": "+14806765193", "display_phone": "(480) 676-5193", "distance": 1234.1600177931148}, {"id": "fmAjKpZvcaVx63EBdwVGnw", "alias": "atheneum-suite-hotel-detroit", "name": "Atheneum Suite Hotel", "image_url": "https://s3-media3.fl.yelpcdn.com/bphoto/ZMGjhWxGrJtd-VntAT0ndA/o.jpg", "is_closed": false, "url": "https://www.yelp.com/biz/atheneum-suite-hotel-detroit?adjust_creative=IRGiHDHEMvnO3enKiUWF4A&utm_campaign=yelp_api_v3&utm_medium=api_v3_business_search&utm_source=IRGiHDHEMvnO3enKiUWF4A", "review_count": 161, "categories": [{"alias": "hotels", "title": "Hotels"}], "rating": 3.0, "coordinates": {"latitude": 42.333978377866636, "longitude": -83.0429429023152}, "transactions": [], "price": "$$", "location": {"address1": "1000 Brush St", "address2": "", "address3": "", "city": "Detroit", "zip_code": "48226", "country": "US", "state": "MI", "display_address": ["1000 Brush St", "Detroit, MI 48226"]}, "phone": "+13139622323", "display_phone": "(313) 962-2323", "distance": 730.330592473222}, {"id": "0kTxd61oZ0NiTJ_S47hGdw", "alias": "motorcity-casino-hotel-detroit", "name": "MotorCity Casino Hotel", "image_url": "https://s3-media3.fl.yelpcdn.com/bphoto/kgCMTlrvILfcnY0lUZyOPg/o.jpg", "is_closed": false, "url": "https://www.yelp.com/biz/motorcity-casino-hotel-detroit?adjust_creative=IRGiHDHEMvnO3enKiUWF4A&utm_campaign=yelp_api_v3&utm_medium=api_v3_business_search&utm_source=IRGiHDHEMvnO3enKiUWF4A", "review_count": 215, "categories": [{"alias": "hotels", "title": "Hotels"}], "rating": 3.0, "coordinates": {"latitude": 42.338901, "longitude": -83.067778}, "transactions": [], "price": "$$$", "location": {"address1": "2901 Grand River Ave", "address2": "", "address3": "", "city": "Detroit", "zip_code": "48201", "country": "US", "state": "MI", "display_address": ["2901 Grand River Ave", "Detroit, MI 48201"]}, "phone": "+18667829622", "display_phone": "(866) 782-9622", "distance": 1695.2699997966781}, {"id": "CPxCS0GHckk_GjBtWEAw5Q", "alias": "crowne-plaza-detroit-downtown-riverfront-detroit", "name": "Crowne Plaza Detroit Downtown Riverfront", "image_url": "https://s3-media1.fl.yelpcdn.com/bphoto/RfCCK_dbqRnq0BIWTkUrTA/o.jpg", "is_closed": false, "url": "https://www.yelp.com/biz/crowne-plaza-detroit-downtown-riverfront-detroit?adjust_creative=IRGiHDHEMvnO3enKiUWF4A&utm_campaign=yelp_api_v3&utm_medium=api_v3_business_search&utm_source=IRGiHDHEMvnO3enKiUWF4A", "review_count": 166, "categories": [{"alias": "venues", "title": "Venues & Event Spaces"}, {"alias": "hotels", "title": "Hotels"}], "rating": 3.0, "coordinates": {"latitude": 42.3279, "longitude": -83.04772}, "transactions": [], "price": "$$", "location": {"address1": "2 Washington Blvd", "address2": "", "address3": "", "city": "Detroit", "zip_code": "48226", "country": "US", "state": "MI", "display_address": ["2 Washington Blvd", "Detroit, MI 48226"]}, "phone": "+13139650200", "display_phone": "(313) 965-0200", "distance": 369.3306483936345}, {"id": "10qMvlM8xjUUZYpUglYriw", "alias": "hilton-garden-inn-detroit-downtown-detroit-2", "name": "Hilton Garden Inn Detroit Downtown", "image_url": "https://s3-media4.fl.yelpcdn.com/bphoto/A2fhqfCDUlpJJqr6zz0UzA/o.jpg", "is_closed": false, "url": "https://www.yelp.com/biz/hilton-garden-inn-detroit-downtown-detroit-2?adjust_creative=IRGiHDHEMvnO3enKiUWF4A&utm_campaign=yelp_api_v3&utm_medium=api_v3_business_search&utm_source=IRGiHDHEMvnO3enKiUWF4A", "review_count": 90, "categories": [{"alias": "hotels", "title": "Hotels"}], "rating": 3.5, "coordinates": {"latitude": 42.3359146575659, "longitude": -83.0450447}, "transactions": [], "price": "$$", "location": {"address1": "351 Gratiot Ave", "address2": "", "address3": "", "city": "Detroit", "zip_code": "48226", "country": "US", "state": "MI", "display_address": ["351 Gratiot Ave", "Detroit, MI 48226"]}, "phone": "+13139670900", "display_phone": "(313) 967-0900", "distance": 747.2718364733382}, {"id": "UnqOuMUM3CTR7U2OVNOmCw", "alias": "shinola-hotel-detroit-2", "name": "Shinola Hotel", "image_url": "https://s3-media4.fl.yelpcdn.com/bphoto/rwt09PDS7CWl98Bxhf9gHQ/o.jpg", "is_closed": false, "url": "https://www.yelp.com/biz/shinola-hotel-detroit-2?adjust_creative=IRGiHDHEMvnO3enKiUWF4A&utm_campaign=yelp_api_v3&utm_medium=api_v3_business_search&utm_source=IRGiHDHEMvnO3enKiUWF4A", "review_count": 30, "categories": [{"alias": "hotels", "title": "Hotels"}], "rating": 4.0, "coordinates": {"latitude": 42.33502, "longitude": -83.04895}, "transactions": [], "location": {"address1": "1424 Woodward Ave", "address2": null, "address3": null, "city": "Detroit", "zip_code": "48226", "country": "US", "state": "MI", "display_address": ["1424 Woodward Ave", "Detroit, MI 48226"]}, "phone": "+13133563118", "display_phone": "(313) 356-3118", "distance": 479.84373359489405}, {"id": "wutGzfMxP54dKBOKzT-msg", "alias": "el-moore-detroit", "name": "El Moore Lodge & Residences", "image_url": "https://s3-media3.fl.yelpcdn.com/bphoto/EwMEhUTC1LK7ZKXyILt5ZQ/o.jpg", "is_closed": false, "url": "https://www.yelp.com/biz/el-moore-detroit?adjust_creative=IRGiHDHEMvnO3enKiUWF4A&utm_campaign=yelp_api_v3&utm_medium=api_v3_business_search&utm_source=IRGiHDHEMvnO3enKiUWF4A", "review_count": 20, "categories": [{"alias": "hotels", "title": "Hotels"}], "rating": 5.0, "coordinates": {"latitude": 42.3488384956088, "longitude": -83.0655535851116}, "transactions": [], "price": "$$$", "location": {"address1": "624 W Alexandrine St", "address2": "", "address3": null, "city": "Detroit", "zip_code": "48201", "country": "US", "state": "MI", "display_address": ["624 W Alexandrine St", "Detroit, MI 48201"]}, "phone": "+13139244374", "display_phone": "(313) 924-4374", "distance": 2379.3680399530285}, {"id": "UH_J2_d5wnrS6w94m3oPiA", "alias": "greektown-casino-hotel-detroit-8", "name": "Greektown Casino-Hotel", "image_url": "https://s3-media2.fl.yelpcdn.com/bphoto/RTyhsRP4j23BPBPsBmNDLw/o.jpg", "is_closed": false, "url": "https://www.yelp.com/biz/greektown-casino-hotel-detroit-8?adjust_creative=IRGiHDHEMvnO3enKiUWF4A&utm_campaign=yelp_api_v3&utm_medium=api_v3_business_search&utm_source=IRGiHDHEMvnO3enKiUWF4A", "review_count": 173, "categories": [{"alias": "casinos", "title": "Casinos"}, {"alias": "hotels", "title": "Hotels"}], "rating": 2.5, "coordinates": {"latitude": 42.33451, "longitude": -83.04123}, "transactions": [], "price": "$$", "location": {"address1": "555 E Lafayette Ave", "address2": "", "address3": "", "city": "Detroit", "zip_code": "48226", "country": "US", "state": "MI", "display_address": ["555 E Lafayette Ave", "Detroit, MI 48226"]}, "phone": "+13132232999", "display_phone": "(313) 223-2999", "distance": 887.1644684818211}, {"id": "uLIsTVQxBLkQwv_AYMDyGg", "alias": "the-siren-hotel-detroit", "name": "The Siren Hotel", "image_url": "https://s3-media4.fl.yelpcdn.com/bphoto/hI5sWfvYGPArqbwaWA-lyw/o.jpg", "is_closed": false, "url": "https://www.yelp.com/biz/the-siren-hotel-detroit?adjust_creative=IRGiHDHEMvnO3enKiUWF4A&utm_campaign=yelp_api_v3&utm_medium=api_v3_business_search&utm_source=IRGiHDHEMvnO3enKiUWF4A", "review_count": 52, "categories": [{"alias": "hotels", "title": "Hotels"}], "rating": 3.5, "coordinates": {"latitude": 42.33571, "longitude": -83.04854}, "transactions": [], "price": "$$", "location": {"address1": "1509 Broadway St", "address2": "", "address3": null, "city": "Detroit", "zip_code": "48226", "country": "US", "state": "MI", "display_address": ["1509 Broadway St", "Detroit, MI 48226"]}, "phone": "+13132774736", "display_phone": "(313) 277-4736", "distance": 590.5495663363705}, {"id": "c61ZONgWldNCvbRZs5C_YQ", "alias": "courtyard-detroit-downtown-detroit-2", "name": "Courtyard Detroit Downtown", "image_url": "https://s3-media3.fl.yelpcdn.com/bphoto/MawVnMYVJWoTFdX4xrQYLA/o.jpg", "is_closed": false, "url": "https://www.yelp.com/biz/courtyard-detroit-downtown-detroit-2?adjust_creative=IRGiHDHEMvnO3enKiUWF4A&utm_campaign=yelp_api_v3&utm_medium=api_v3_business_search&utm_source=IRGiHDHEMvnO3enKiUWF4A", "review_count": 80, "categories": [{"alias": "hotels", "title": "Hotels"}], "rating": 3.0, "coordinates": {"latitude": 42.33051, "longitude": -83.04165}, "transactions": [], "price": "$$", "location": {"address1": "333 East Jefferson Ave", "address2": "", "address3": "", "city": "Detroit", "zip_code": "48226", "country": "US", "state": "MI", "display_address": ["333 East Jefferson Ave", "Detroit, MI 48226"]}, "phone": "+13132227700", "display_phone": "(313) 222-7700", "distance": 726.5059358713017}, {"id": "ocXlA0ESV7B2WWCIZ6brFQ", "alias": "element-detroit-at-the-metropolitan-detroit", "name": "Element Detroit at The Metropolitan", "image_url": "https://s3-media1.fl.yelpcdn.com/bphoto/qZ7CX7TcbcI0pXxtMSlprA/o.jpg", "is_closed": false, "url": "https://www.yelp.com/biz/element-detroit-at-the-metropolitan-detroit?adjust_creative=IRGiHDHEMvnO3enKiUWF4A&utm_campaign=yelp_api_v3&utm_medium=api_v3_business_search&utm_source=IRGiHDHEMvnO3enKiUWF4A", "review_count": 13, "categories": [{"alias": "hotels", "title": "Hotels"}, {"alias": "venues", "title": "Venues & Event Spaces"}], "rating": 4.5, "coordinates": {"latitude": 42.33546, "longitude": -83.04887}, "transactions": [], "location": {"address1": "33 John R Street", "address2": null, "address3": null, "city": "Detroit", "zip_code": "48226", "country": "US", "state": "MI", "display_address": ["33 John R Street", "Detroit, MI 48226"]}, "phone": "+13133240700", "display_phone": "(313) 324-0700", "distance": 560.4626875158714}, {"id": "meR7y7lI2MM04_MMkwx0pA", "alias": "hotel-indigo-detroit-downtown-detroit", "name": "Hotel Indigo Detroit Downtown", "image_url": "https://s3-media4.fl.yelpcdn.com/bphoto/-RArEvcqdoA2QoEznLxjUg/o.jpg", "is_closed": false, "url": "https://www.yelp.com/biz/hotel-indigo-detroit-downtown-detroit?adjust_creative=IRGiHDHEMvnO3enKiUWF4A&utm_campaign=yelp_api_v3&utm_medium=api_v3_business_search&utm_source=IRGiHDHEMvnO3enKiUWF4A", "review_count": 100, "categories": [{"alias": "hotels", "title": "Hotels"}, {"alias": "venues", "title": "Venues & Event Spaces"}], "rating": 2.5, "coordinates": {"latitude": 42.33085, "longitude": -83.05052}, "transactions": [], "price": "$$", "location": {"address1": "1020 Washington Blvd", "address2": "", "address3": "", "city": "Detroit", "zip_code": "48226", "country": "US", "state": "MI", "display_address": ["1020 Washington Blvd", "Detroit, MI 48226"]}, "phone": "+13138877000", "display_phone": "(313) 887-7000", "distance": 98.93230235810917}, {"id": "_0wu_GsvfbfFSIolaCQ-_Q", "alias": "best-western-plus-waterfront-hotel-windsor", "name": "Best Western Plus Waterfront Hotel", "image_url": "https://s3-media1.fl.yelpcdn.com/bphoto/Va_DYmNMtlGfk5LfRjI3oQ/o.jpg", "is_closed": false, "url": "https://www.yelp.com/biz/best-western-plus-waterfront-hotel-windsor?adjust_creative=IRGiHDHEMvnO3enKiUWF4A&utm_campaign=yelp_api_v3&utm_medium=api_v3_business_search&utm_source=IRGiHDHEMvnO3enKiUWF4A", "review_count": 47, "categories": [{"alias": "hotels", "title": "Hotels"}], "rating": 3.0, "coordinates": {"latitude": 42.3188056, "longitude": -83.0428619}, "transactions": [], "price": "$$", "location": {"address1": "277 Riverside Dr W", "address2": null, "address3": null, "city": "Windsor", "zip_code": "N9A 5K4", "country": "CA", "state": "ON", "display_address": ["277 Riverside Dr W", "Windsor, ON N9A 5K4", "Canada"]}, "phone": "+15199735555", "display_phone": "+1 519-973-5555", "distance": 1449.9257777138905}], "total": 44, "region": {"center": {"longitude": -83.050522, "latitude": 42.330551}}}, "lon_-83.04882_and_lat_42.331245": {"businesses": [{"id": "HbEwyxLIAwc8tx8Ll9laOQ", "alias": "the-westin-book-cadillac-detroit-detroit", "name": "The Westin Book Cadillac Detroit", "image_url": "https://s3-media2.fl.yelpcdn.com/bphoto/NdhwNs3FqYg4-HllMrUieQ/o.jpg", "is_closed": false, "url": "https://www.yelp.com/biz/the-westin-book-cadillac-detroit-detroit?adjust_creative=IRGiHDHEMvnO3enKiUWF4A&utm_campaign=yelp_api_v3&utm_medium=api_v3_business_search&utm_source=IRGiHDHEMvnO3enKiUWF4A", "review_count": 267, "categories": [{"alias": "hotels", "title": "Hotels"}, {"alias": "venues", "title": "Venues & Event Spaces"}], "rating": 4.0, "coordinates": {"latitude": 42.33242, "longitude": -83.05047}, "transactions": [], "price": "$$$", "location": {"address1": "1114 Washington Blvd", "address2": "", "address3": "", "city": "Detroit", "zip_code": "48226", "country": "US", "state": "MI", "display_address": ["1114 Washington Blvd", "Detroit, MI 48226"]}, "phone": "+13134421600", "display_phone": "(313) 442-1600", "distance": 150.1048300333761}, {"id": "t_2WmzFuwnYEpzfSKABYgg", "alias": "detroit-foundation-hotel-detroit", "name": "Detroit Foundation Hotel", "image_url": "https://s3-media3.fl.yelpcdn.com/bphoto/GBL4Pu0M2kZVi0iZLtsmrA/o.jpg", "is_closed": false, "url": "https://www.yelp.com/biz/detroit-foundation-hotel-detroit?adjust_creative=IRGiHDHEMvnO3enKiUWF4A&utm_campaign=yelp_api_v3&utm_medium=api_v3_business_search&utm_source=IRGiHDHEMvnO3enKiUWF4A", "review_count": 90, "categories": [{"alias": "hotels", "title": "Hotels"}], "rating": 4.5, "coordinates": {"latitude": 42.328328, "longitude": -83.048352}, "transactions": [], "price": "$$$", "location": {"address1": "250 W Larned St", "address2": "", "address3": null, "city": "Detroit", "zip_code": "48226", "country": "US", "state": "MI", "display_address": ["250 W Larned St", "Detroit, MI 48226"]}, "phone": "+13138005500", "display_phone": "(313) 800-5500", "distance": 326.6288177065076}, {"id": "ByOX-Ik4Jhr3i_Um2xO4uw", "alias": "aloft-detroit-at-the-david-whitney-detroit", "name": "Aloft Detroit at the David Whitney", "image_url": "https://s3-media2.fl.yelpcdn.com/bphoto/Jr1u6yJS32r2QINNKqKRHw/o.jpg", "is_closed": false, "url": "https://www.yelp.com/biz/aloft-detroit-at-the-david-whitney-detroit?adjust_creative=IRGiHDHEMvnO3enKiUWF4A&utm_campaign=yelp_api_v3&utm_medium=api_v3_business_search&utm_source=IRGiHDHEMvnO3enKiUWF4A", "review_count": 110, "categories": [{"alias": "hotels", "title": "Hotels"}, {"alias": "venues", "title": "Venues & Event Spaces"}], "rating": 4.0, "coordinates": {"latitude": 42.33581023165795, "longitude": -83.05050944309794}, "transactions": [], "price": "$$", "location": {"address1": "One Park Ave", "address2": null, "address3": null, "city": "Detroit", "zip_code": "48226", "country": "US", "state": "MI", "display_address": ["One Park Ave", "Detroit, MI 48226"]}, "phone": "+13132371700", "display_phone": "(313) 237-1700", "distance": 526.2826550333608}, {"id": "EzgdsNgqyqnMI4LjN90oww", "alias": "mgm-grand-detroit-detroit-2", "name": "MGM Grand Detroit", "image_url": "https://s3-media4.fl.yelpcdn.com/bphoto/cNZ0vKlW0vdDcpTVMXHn_Q/o.jpg", "is_closed": false, "url": "https://www.yelp.com/biz/mgm-grand-detroit-detroit-2?adjust_creative=IRGiHDHEMvnO3enKiUWF4A&utm_campaign=yelp_api_v3&utm_medium=api_v3_business_search&utm_source=IRGiHDHEMvnO3enKiUWF4A", "review_count": 315, "categories": [{"alias": "hotels", "title": "Hotels"}, {"alias": "casinos", "title": "Casinos"}], "rating": 3.0, "coordinates": {"latitude": 42.333563, "longitude": -83.059204}, "transactions": [], "price": "$$$", "location": {"address1": "1777 3rd Ave", "address2": "", "address3": "", "city": "Detroit", "zip_code": "48226", "country": "US", "state": "MI", "display_address": ["1777 3rd Ave", "Detroit, MI 48226"]}, "phone": "+18778882121", "display_phone": "(877) 888-2121", "distance": 891.639968022887}, {"id": "iefl5nALcLu7EKzcFjUaGQ", "alias": "the-detroit-club-detroit", "name": "The Detroit Club", "image_url": "https://s3-media1.fl.yelpcdn.com/bphoto/Hbr8OhfgJeqKQvIOw7GnRQ/o.jpg", "is_closed": false, "url": "https://www.yelp.com/biz/the-detroit-club-detroit?adjust_creative=IRGiHDHEMvnO3enKiUWF4A&utm_campaign=yelp_api_v3&utm_medium=api_v3_business_search&utm_source=IRGiHDHEMvnO3enKiUWF4A", "review_count": 69, "categories": [{"alias": "social_clubs", "title": "Social Clubs"}, {"alias": "newamerican", "title": "American (New)"}, {"alias": "hotels", "title": "Hotels"}], "rating": 4.0, "coordinates": {"latitude": 42.329707610564, "longitude": -83.050738914188}, "transactions": ["delivery"], "price": "$$$", "location": {"address1": "712 Cass Ave", "address2": "", "address3": "", "city": "Detroit", "zip_code": "48226", "country": "US", "state": "MI", "display_address": ["712 Cass Ave", "Detroit, MI 48226"]}, "phone": "+13133383222", "display_phone": "(313) 338-3222", "distance": 232.60710079263953}, {"id": "ptFM4blt20bLc80avvXfHw", "alias": "doubletree-suites-by-hilton-hotel-detroit-downtown-fort-shelby-detroit-3", "name": "DoubleTree Suites by Hilton Hotel Detroit Downtown - Fort Shelby", "image_url": "https://s3-media3.fl.yelpcdn.com/bphoto/1adnYdfgkGNfyK18dqkBMA/o.jpg", "is_closed": false, "url": "https://www.yelp.com/biz/doubletree-suites-by-hilton-hotel-detroit-downtown-fort-shelby-detroit-3?adjust_creative=IRGiHDHEMvnO3enKiUWF4A&utm_campaign=yelp_api_v3&utm_medium=api_v3_business_search&utm_source=IRGiHDHEMvnO3enKiUWF4A", "review_count": 110, "categories": [{"alias": "hotels", "title": "Hotels"}], "rating": 3.5, "coordinates": {"latitude": 42.3293497, "longitude": -83.0526689}, "transactions": [], "price": "$$", "location": {"address1": "525 W Lafayette Blvd", "address2": "", "address3": "", "city": "Detroit", "zip_code": "48226", "country": "US", "state": "MI", "display_address": ["525 W Lafayette Blvd", "Detroit, MI 48226"]}, "phone": "+13139635600", "display_phone": "(313) 963-5600", "distance": 380.15680845269276}, {"id": "WBs1UZcgLc5aThw5E6w3QQ", "alias": "detroit-marriott-at-the-renaissance-center-detroit", "name": "Detroit Marriott at the Renaissance Center", "image_url": "https://s3-media3.fl.yelpcdn.com/bphoto/tj_6VDqfeZTOs6NIkOwl2A/o.jpg", "is_closed": false, "url": "https://www.yelp.com/biz/detroit-marriott-at-the-renaissance-center-detroit?adjust_creative=IRGiHDHEMvnO3enKiUWF4A&utm_campaign=yelp_api_v3&utm_medium=api_v3_business_search&utm_source=IRGiHDHEMvnO3enKiUWF4A", "review_count": 327, "categories": [{"alias": "hotels", "title": "Hotels"}, {"alias": "venues", "title": "Venues & Event Spaces"}], "rating": 3.0, "coordinates": {"latitude": 42.3288965900366, "longitude": -83.0393888988237}, "transactions": [], "price": "$$$", "location": {"address1": "400 Renaissance Ctr", "address2": "400 Renaissance Dr", "address3": "", "city": "Detroit", "zip_code": "48243", "country": "US", "state": "MI", "display_address": ["400 Renaissance Ctr", "400 Renaissance Dr", "Detroit, MI 48243"]}, "phone": "+13135688000", "display_phone": "(313) 568-8000", "distance": 818.0692483610615}, {"id": "fmAjKpZvcaVx63EBdwVGnw", "alias": "atheneum-suite-hotel-detroit", "name": "Atheneum Suite Hotel", "image_url": "https://s3-media3.fl.yelpcdn.com/bphoto/ZMGjhWxGrJtd-VntAT0ndA/o.jpg", "is_closed": false, "url": "https://www.yelp.com/biz/atheneum-suite-hotel-detroit?adjust_creative=IRGiHDHEMvnO3enKiUWF4A&utm_campaign=yelp_api_v3&utm_medium=api_v3_business_search&utm_source=IRGiHDHEMvnO3enKiUWF4A", "review_count": 161, "categories": [{"alias": "hotels", "title": "Hotels"}], "rating": 3.0, "coordinates": {"latitude": 42.333978377866636, "longitude": -83.0429429023152}, "transactions": [], "price": "$$", "location": {"address1": "1000 Brush St", "address2": "", "address3": "", "city": "Detroit", "zip_code": "48226", "country": "US", "state": "MI", "display_address": ["1000 Brush St", "Detroit, MI 48226"]}, "phone": "+13139622323", "display_phone": "(313) 962-2323", "distance": 570.757447705902}, {"id": "jLgHyIJctBnpL2Y6XVUlrw", "alias": "trumbull-and-porter-an-ascend-hotel-collection-member-detroit", "name": "Trumbull and Porter, an Ascend Hotel Collection Member", "image_url": "https://s3-media2.fl.yelpcdn.com/bphoto/Vf3TnfA5kxd1Gw1YyhU6_g/o.jpg", "is_closed": false, "url": "https://www.yelp.com/biz/trumbull-and-porter-an-ascend-hotel-collection-member-detroit?adjust_creative=IRGiHDHEMvnO3enKiUWF4A&utm_campaign=yelp_api_v3&utm_medium=api_v3_business_search&utm_source=IRGiHDHEMvnO3enKiUWF4A", "review_count": 123, "categories": [{"alias": "hotels", "title": "Hotels"}], "rating": 3.5, "coordinates": {"latitude": 42.3271570642108, "longitude": -83.0648159980774}, "transactions": [], "price": "$$", "location": {"address1": "1331 Trumbull St", "address2": "", "address3": "", "city": "Detroit", "zip_code": "48216", "country": "US", "state": "MI", "display_address": ["1331 Trumbull St", "Detroit, MI 48216"]}, "phone": "+14806765193", "display_phone": "(480) 676-5193", "distance": 1391.300736668867}, {"id": "CPxCS0GHckk_GjBtWEAw5Q", "alias": "crowne-plaza-detroit-downtown-riverfront-detroit", "name": "Crowne Plaza Detroit Downtown Riverfront", "image_url": "https://s3-media1.fl.yelpcdn.com/bphoto/RfCCK_dbqRnq0BIWTkUrTA/o.jpg", "is_closed": false, "url": "https://www.yelp.com/biz/crowne-plaza-detroit-downtown-riverfront-detroit?adjust_creative=IRGiHDHEMvnO3enKiUWF4A&utm_campaign=yelp_api_v3&utm_medium=api_v3_business_search&utm_source=IRGiHDHEMvnO3enKiUWF4A", "review_count": 166, "categories": [{"alias": "venues", "title": "Venues & Event Spaces"}, {"alias": "hotels", "title": "Hotels"}], "rating": 3.0, "coordinates": {"latitude": 42.3279, "longitude": -83.04772}, "transactions": [], "price": "$$", "location": {"address1": "2 Washington Blvd", "address2": "", "address3": "", "city": "Detroit", "zip_code": "48226", "country": "US", "state": "MI", "display_address": ["2 Washington Blvd", "Detroit, MI 48226"]}, "phone": "+13139650200", "display_phone": "(313) 965-0200", "distance": 380.3730507819329}, {"id": "0kTxd61oZ0NiTJ_S47hGdw", "alias": "motorcity-casino-hotel-detroit", "name": "MotorCity Casino Hotel", "image_url": "https://s3-media3.fl.yelpcdn.com/bphoto/kgCMTlrvILfcnY0lUZyOPg/o.jpg", "is_closed": false, "url": "https://www.yelp.com/biz/motorcity-casino-hotel-detroit?adjust_creative=IRGiHDHEMvnO3enKiUWF4A&utm_campaign=yelp_api_v3&utm_medium=api_v3_business_search&utm_source=IRGiHDHEMvnO3enKiUWF4A", "review_count": 215, "categories": [{"alias": "hotels", "title": "Hotels"}], "rating": 3.0, "coordinates": {"latitude": 42.338901, "longitude": -83.067778}, "transactions": [], "price": "$$$", "location": {"address1": "2901 Grand River Ave", "address2": "", "address3": "", "city": "Detroit", "zip_code": "48201", "country": "US", "state": "MI", "display_address": ["2901 Grand River Ave", "Detroit, MI 48201"]}, "phone": "+18667829622", "display_phone": "(866) 782-9622", "distance": 1775.6724172455663}, {"id": "10qMvlM8xjUUZYpUglYriw", "alias": "hilton-garden-inn-detroit-downtown-detroit-2", "name": "Hilton Garden Inn Detroit Downtown", "image_url": "https://s3-media4.fl.yelpcdn.com/bphoto/A2fhqfCDUlpJJqr6zz0UzA/o.jpg", "is_closed": false, "url": "https://www.yelp.com/biz/hilton-garden-inn-detroit-downtown-detroit-2?adjust_creative=IRGiHDHEMvnO3enKiUWF4A&utm_campaign=yelp_api_v3&utm_medium=api_v3_business_search&utm_source=IRGiHDHEMvnO3enKiUWF4A", "review_count": 90, "categories": [{"alias": "hotels", "title": "Hotels"}], "rating": 3.5, "coordinates": {"latitude": 42.3359146575659, "longitude": -83.0450447}, "transactions": [], "price": "$$", "location": {"address1": "351 Gratiot Ave", "address2": "", "address3": "", "city": "Detroit", "zip_code": "48226", "country": "US", "state": "MI", "display_address": ["351 Gratiot Ave", "Detroit, MI 48226"]}, "phone": "+13139670900", "display_phone": "(313) 967-0900", "distance": 604.9088037489652}, {"id": "UnqOuMUM3CTR7U2OVNOmCw", "alias": "shinola-hotel-detroit-2", "name": "Shinola Hotel", "image_url": "https://s3-media4.fl.yelpcdn.com/bphoto/rwt09PDS7CWl98Bxhf9gHQ/o.jpg", "is_closed": false, "url": "https://www.yelp.com/biz/shinola-hotel-detroit-2?adjust_creative=IRGiHDHEMvnO3enKiUWF4A&utm_campaign=yelp_api_v3&utm_medium=api_v3_business_search&utm_source=IRGiHDHEMvnO3enKiUWF4A", "review_count": 30, "categories": [{"alias": "hotels", "title": "Hotels"}], "rating": 4.0, "coordinates": {"latitude": 42.33502, "longitude": -83.04895}, "transactions": [], "location": {"address1": "1424 Woodward Ave", "address2": null, "address3": null, "city": "Detroit", "zip_code": "48226", "country": "US", "state": "MI", "display_address": ["1424 Woodward Ave", "Detroit, MI 48226"]}, "phone": "+13133563118", "display_phone": "(313) 356-3118", "distance": 377.8456603883207}, {"id": "wutGzfMxP54dKBOKzT-msg", "alias": "el-moore-detroit", "name": "El Moore Lodge & Residences", "image_url": "https://s3-media3.fl.yelpcdn.com/bphoto/EwMEhUTC1LK7ZKXyILt5ZQ/o.jpg", "is_closed": false, "url": "https://www.yelp.com/biz/el-moore-detroit?adjust_creative=IRGiHDHEMvnO3enKiUWF4A&utm_campaign=yelp_api_v3&utm_medium=api_v3_business_search&utm_source=IRGiHDHEMvnO3enKiUWF4A", "review_count": 20, "categories": [{"alias": "hotels", "title": "Hotels"}], "rating": 5.0, "coordinates": {"latitude": 42.3488384956088, "longitude": -83.0655535851116}, "transactions": [], "price": "$$$", "location": {"address1": "624 W Alexandrine St", "address2": "", "address3": null, "city": "Detroit", "zip_code": "48201", "country": "US", "state": "MI", "display_address": ["624 W Alexandrine St", "Detroit, MI 48201"]}, "phone": "+13139244374", "display_phone": "(313) 924-4374", "distance": 2391.3823717825203}, {"id": "UH_J2_d5wnrS6w94m3oPiA", "alias": "greektown-casino-hotel-detroit-8", "name": "Greektown Casino-Hotel", "image_url": "https://s3-media2.fl.yelpcdn.com/bphoto/RTyhsRP4j23BPBPsBmNDLw/o.jpg", "is_closed": false, "url": "https://www.yelp.com/biz/greektown-casino-hotel-detroit-8?adjust_creative=IRGiHDHEMvnO3enKiUWF4A&utm_campaign=yelp_api_v3&utm_medium=api_v3_business_search&utm_source=IRGiHDHEMvnO3enKiUWF4A", "review_count": 173, "categories": [{"alias": "casinos", "title": "Casinos"}, {"alias": "hotels", "title": "Hotels"}], "rating": 2.5, "coordinates": {"latitude": 42.33451, "longitude": -83.04123}, "transactions": [], "price": "$$", "location": {"address1": "555 E Lafayette Ave", "address2": "", "address3": "", "city": "Detroit", "zip_code": "48226", "country": "US", "state": "MI", "display_address": ["555 E Lafayette Ave", "Detroit, MI 48226"]}, "phone": "+13132232999", "display_phone": "(313) 223-2999", "distance": 727.4809883055476}, {"id": "uLIsTVQxBLkQwv_AYMDyGg", "alias": "the-siren-hotel-detroit", "name": "The Siren Hotel", "image_url": "https://s3-media4.fl.yelpcdn.com/bphoto/hI5sWfvYGPArqbwaWA-lyw/o.jpg", "is_closed": false, "url": "https://www.yelp.com/biz/the-siren-hotel-detroit?adjust_creative=IRGiHDHEMvnO3enKiUWF4A&utm_campaign=yelp_api_v3&utm_medium=api_v3_business_search&utm_source=IRGiHDHEMvnO3enKiUWF4A", "review_count": 52, "categories": [{"alias": "hotels", "title": "Hotels"}], "rating": 3.5, "coordinates": {"latitude": 42.33571, "longitude": -83.04854}, "transactions": [], "price": "$$", "location": {"address1": "1509 Broadway St", "address2": "", "address3": null, "city": "Detroit", "zip_code": "48226", "country": "US", "state": "MI", "display_address": ["1509 Broadway St", "Detroit, MI 48226"]}, "phone": "+13132774736", "display_phone": "(313) 277-4736", "distance": 492.5496346752404}, {"id": "c61ZONgWldNCvbRZs5C_YQ", "alias": "courtyard-detroit-downtown-detroit-2", "name": "Courtyard Detroit Downtown", "image_url": "https://s3-media3.fl.yelpcdn.com/bphoto/MawVnMYVJWoTFdX4xrQYLA/o.jpg", "is_closed": false, "url": "https://www.yelp.com/biz/courtyard-detroit-downtown-detroit-2?adjust_creative=IRGiHDHEMvnO3enKiUWF4A&utm_campaign=yelp_api_v3&utm_medium=api_v3_business_search&utm_source=IRGiHDHEMvnO3enKiUWF4A", "review_count": 80, "categories": [{"alias": "hotels", "title": "Hotels"}], "rating": 3.0, "coordinates": {"latitude": 42.33051, "longitude": -83.04165}, "transactions": [], "price": "$$", "location": {"address1": "333 East Jefferson Ave", "address2": "", "address3": "", "city": "Detroit", "zip_code": "48226", "country": "US", "state": "MI", "display_address": ["333 East Jefferson Ave", "Detroit, MI 48226"]}, "phone": "+13132227700", "display_phone": "(313) 222-7700", "distance": 591.8708102141621}, {"id": "ocXlA0ESV7B2WWCIZ6brFQ", "alias": "element-detroit-at-the-metropolitan-detroit", "name": "Element Detroit at The Metropolitan", "image_url": "https://s3-media1.fl.yelpcdn.com/bphoto/qZ7CX7TcbcI0pXxtMSlprA/o.jpg", "is_closed": false, "url": "https://www.yelp.com/biz/element-detroit-at-the-metropolitan-detroit?adjust_creative=IRGiHDHEMvnO3enKiUWF4A&utm_campaign=yelp_api_v3&utm_medium=api_v3_business_search&utm_source=IRGiHDHEMvnO3enKiUWF4A", "review_count": 13, "categories": [{"alias": "hotels", "title": "Hotels"}, {"alias": "venues", "title": "Venues & Event Spaces"}], "rating": 4.5, "coordinates": {"latitude": 42.33546, "longitude": -83.04887}, "transactions": [], "location": {"address1": "33 John R Street", "address2": null, "address3": null, "city": "Detroit", "zip_code": "48226", "country": "US", "state": "MI", "display_address": ["33 John R Street", "Detroit, MI 48226"]}, "phone": "+13133240700", "display_phone": "(313) 324-0700", "distance": 466.16811094049643}, {"id": "meR7y7lI2MM04_MMkwx0pA", "alias": "hotel-indigo-detroit-downtown-detroit", "name": "Hotel Indigo Detroit Downtown", "image_url": "https://s3-media4.fl.yelpcdn.com/bphoto/-RArEvcqdoA2QoEznLxjUg/o.jpg", "is_closed": false, "url": "https://www.yelp.com/biz/hotel-indigo-detroit-downtown-detroit?adjust_creative=IRGiHDHEMvnO3enKiUWF4A&utm_campaign=yelp_api_v3&utm_medium=api_v3_business_search&utm_source=IRGiHDHEMvnO3enKiUWF4A", "review_count": 100, "categories": [{"alias": "hotels", "title": "Hotels"}, {"alias": "venues", "title": "Venues & Event Spaces"}], "rating": 2.5, "coordinates": {"latitude": 42.33085, "longitude": -83.05052}, "transactions": [], "price": "$$", "location": {"address1": "1020 Washington Blvd", "address2": "", "address3": "", "city": "Detroit", "zip_code": "48226", "country": "US", "state": "MI", "display_address": ["1020 Washington Blvd", "Detroit, MI 48226"]}, "phone": "+13138877000", "display_phone": "(313) 887-7000", "distance": 138.57877171134305}, {"id": "_0wu_GsvfbfFSIolaCQ-_Q", "alias": "best-western-plus-waterfront-hotel-windsor", "name": "Best Western Plus Waterfront Hotel", "image_url": "https://s3-media1.fl.yelpcdn.com/bphoto/Va_DYmNMtlGfk5LfRjI3oQ/o.jpg", "is_closed": false, "url": "https://www.yelp.com/biz/best-western-plus-waterfront-hotel-windsor?adjust_creative=IRGiHDHEMvnO3enKiUWF4A&utm_campaign=yelp_api_v3&utm_medium=api_v3_business_search&utm_source=IRGiHDHEMvnO3enKiUWF4A", "review_count": 47, "categories": [{"alias": "hotels", "title": "Hotels"}], "rating": 3.0, "coordinates": {"latitude": 42.3188056, "longitude": -83.0428619}, "transactions": [], "price": "$$", "location": {"address1": "277 Riverside Dr W", "address2": null, "address3": null, "city": "Windsor", "zip_code": "N9A 5K4", "country": "CA", "state": "ON", "display_address": ["277 Riverside Dr W", "Windsor, ON N9A 5K4", "Canada"]}, "phone": "+15199735555", "display_phone": "+1 519-973-5555", "distance": 1467.3631545645003}], "total": 44, "region": {"center": {"longitude": -83.04882, "latitude": 42.331245}}}, "lon_-74.008476_and_lat_40.708748": {"businesses": [{"id": "03EFU3OR6j085vqGAXwVbA", "alias": "gild-hall-a-thompson-hotel-new-york-4", "name": "Gild Hall, A Thompson Hotel", "image_url": "https://s3-media3.fl.yelpcdn.com/bphoto/cVdthjZkG95IPlchph7ziQ/o.jpg", "is_closed": false, "url": "https://www.yelp.com/biz/gild-hall-a-thompson-hotel-new-york-4?adjust_creative=IRGiHDHEMvnO3enKiUWF4A&utm_campaign=yelp_api_v3&utm_medium=api_v3_business_search&utm_source=IRGiHDHEMvnO3enKiUWF4A", "review_count": 226, "categories": [{"alias": "hotels", "title": "Hotels"}], "rating": 4.0, "coordinates": {"latitude": 40.7078, "longitude": -74.00694}, "transactions": [], "price": "$$", "location": {"address1": "15 Gold St", "address2": "", "address3": "", "city": "New York", "zip_code": "10038", "country": "US", "state": "NY", "display_address": ["15 Gold St", "New York, NY 10038"]}, "phone": "+12122327700", "display_phone": "(212) 232-7700", "distance": 148.9236432293645}, {"id": "jDBXpS5bX4f-tiaAz1ZZbA", "alias": "andaz-wall-street-new-york-6", "name": "Andaz Wall Street", "image_url": "https://s3-media4.fl.yelpcdn.com/bphoto/U592EmTK5bEglV2F0cW6ig/o.jpg", "is_closed": false, "url": "https://www.yelp.com/biz/andaz-wall-street-new-york-6?adjust_creative=IRGiHDHEMvnO3enKiUWF4A&utm_campaign=yelp_api_v3&utm_medium=api_v3_business_search&utm_source=IRGiHDHEMvnO3enKiUWF4A", "review_count": 302, "categories": [{"alias": "hotels", "title": "Hotels"}, {"alias": "venues", "title": "Venues & Event Spaces"}], "rating": 4.0, "coordinates": {"latitude": 40.7051574217701, "longitude": -74.0079346716969}, "transactions": [], "price": "$$$", "location": {"address1": "75 Wall St", "address2": "", "address3": "", "city": "New York", "zip_code": "10005", "country": "US", "state": "NY", "display_address": ["75 Wall St", "New York, NY 10005"]}, "phone": "+12125901234", "display_phone": "(212) 590-1234", "distance": 401.85261440541206}, {"id": "GXqlI0p_NQejvDEgq0xQ9w", "alias": "conrad-new-york-downtown-new-york", "name": "Conrad New York Downtown", "image_url": "https://s3-media3.fl.yelpcdn.com/bphoto/-stq_0ZRkeQ7Lin6Ug5ixw/o.jpg", "is_closed": false, "url": "https://www.yelp.com/biz/conrad-new-york-downtown-new-york?adjust_creative=IRGiHDHEMvnO3enKiUWF4A&utm_campaign=yelp_api_v3&utm_medium=api_v3_business_search&utm_source=IRGiHDHEMvnO3enKiUWF4A", "review_count": 308, "categories": [{"alias": "hotels", "title": "Hotels"}], "rating": 4.0, "coordinates": {"latitude": 40.71503, "longitude": -74.0158397}, "transactions": [], "price": "$$$", "location": {"address1": "102 N End Ave", "address2": null, "address3": "", "city": "New York", "zip_code": "10282", "country": "US", "state": "NY", "display_address": ["102 N End Ave", "New York, NY 10282"]}, "phone": "+12129450100", "display_phone": "(212) 945-0100", "distance": 934.4244252213997}, {"id": "nwvo49wYOrSfg3AhafhZvA", "alias": "the-beekman-a-thompson-hotel-new-york", "name": "The Beekman, A Thompson Hotel", "image_url": "https://s3-media2.fl.yelpcdn.com/bphoto/LvgeGQppQcWaDva-9jYpUg/o.jpg", "is_closed": false, "url": "https://www.yelp.com/biz/the-beekman-a-thompson-hotel-new-york?adjust_creative=IRGiHDHEMvnO3enKiUWF4A&utm_campaign=yelp_api_v3&utm_medium=api_v3_business_search&utm_source=IRGiHDHEMvnO3enKiUWF4A", "review_count": 141, "categories": [{"alias": "hotels", "title": "Hotels"}, {"alias": "venues", "title": "Venues & Event Spaces"}], "rating": 4.0, "coordinates": {"latitude": 40.7111443, "longitude": -74.0066413}, "transactions": [], "price": "$$$", "location": {"address1": "123 Nassau St", "address2": null, "address3": "", "city": "New York", "zip_code": "10038", "country": "US", "state": "NY", "display_address": ["123 Nassau St", "New York, NY 10038"]}, "phone": "+12122332300", "display_phone": "(212) 233-2300", "distance": 308.0801519017061}, {"id": "GYO8lvStXGZAfFDRlOxQ1Q", "alias": "hotel-50-bowery-nyc-new-york", "name": "Hotel 50 Bowery NYC", "image_url": "https://s3-media4.fl.yelpcdn.com/bphoto/3XsZ9jzMboUZqNv0sFBqNA/o.jpg", "is_closed": false, "url": "https://www.yelp.com/biz/hotel-50-bowery-nyc-new-york?adjust_creative=IRGiHDHEMvnO3enKiUWF4A&utm_campaign=yelp_api_v3&utm_medium=api_v3_business_search&utm_source=IRGiHDHEMvnO3enKiUWF4A", "review_count": 172, "categories": [{"alias": "hotels", "title": "Hotels"}, {"alias": "venues", "title": "Venues & Event Spaces"}], "rating": 4.5, "coordinates": {"latitude": 40.71599, "longitude": -73.99683}, "transactions": [], "price": "$$", "location": {"address1": "50 Bowery", "address2": null, "address3": "", "city": "New York", "zip_code": "10013", "country": "US", "state": "NY", "display_address": ["50 Bowery", "New York, NY 10013"]}, "phone": "+12125088000", "display_phone": "(212) 508-8000", "distance": 1256.2321787854437}, {"id": "RBHSPpLaalwkAPfF2uJaTw", "alias": "millennium-hilton-new-york-downtown-new-york-2", "name": "Millennium Hilton New York Downtown", "image_url": "https://s3-media2.fl.yelpcdn.com/bphoto/8K_8Bt-dRd5_EavEnFsU-Q/o.jpg", "is_closed": false, "url": "https://www.yelp.com/biz/millennium-hilton-new-york-downtown-new-york-2?adjust_creative=IRGiHDHEMvnO3enKiUWF4A&utm_campaign=yelp_api_v3&utm_medium=api_v3_business_search&utm_source=IRGiHDHEMvnO3enKiUWF4A", "review_count": 399, "categories": [{"alias": "hotels", "title": "Hotels"}], "rating": 3.5, "coordinates": {"latitude": 40.711114, "longitude": -74.010333}, "transactions": [], "price": "$$$", "location": {"address1": "55 Church St", "address2": "", "address3": "", "city": "New York", "zip_code": "10007", "country": "US", "state": "NY", "display_address": ["55 Church St", "New York, NY 10007"]}, "phone": "+12126932001", "display_phone": "(212) 693-2001", "distance": 306.1276338773917}, {"id": "7X5dByOWa-nXY_2eBnVcHw", "alias": "the-roxy-hotel-tribeca-new-york", "name": "The Roxy Hotel Tribeca", "image_url": "https://s3-media1.fl.yelpcdn.com/bphoto/DpJn-kHXHq5Um_nG6O8fFA/o.jpg", "is_closed": false, "url": "https://www.yelp.com/biz/the-roxy-hotel-tribeca-new-york?adjust_creative=IRGiHDHEMvnO3enKiUWF4A&utm_campaign=yelp_api_v3&utm_medium=api_v3_business_search&utm_source=IRGiHDHEMvnO3enKiUWF4A", "review_count": 422, "categories": [{"alias": "hotels", "title": "Hotels"}], "rating": 3.5, "coordinates": {"latitude": 40.71936, "longitude": -74.00483}, "transactions": [], "price": "$$$", "location": {"address1": "2 6th Ave", "address2": "", "address3": "", "city": "New York", "zip_code": "10013", "country": "US", "state": "NY", "display_address": ["2 6th Ave", "New York, NY 10013"]}, "phone": "+12125196600", "display_phone": "(212) 519-6600", "distance": 1222.5970743911516}, {"id": "giPwSjP4T0ZkXoygdbNfIA", "alias": "club-quarters-manhattan", "name": "Club Quarters", "image_url": "https://s3-media2.fl.yelpcdn.com/bphoto/PhDDeDniexUSz2EVdldymw/o.jpg", "is_closed": false, "url": "https://www.yelp.com/biz/club-quarters-manhattan?adjust_creative=IRGiHDHEMvnO3enKiUWF4A&utm_campaign=yelp_api_v3&utm_medium=api_v3_business_search&utm_source=IRGiHDHEMvnO3enKiUWF4A", "review_count": 175, "categories": [{"alias": "hotels", "title": "Hotels"}], "rating": 4.0, "coordinates": {"latitude": 40.709846496582, "longitude": -74.0139694213867}, "transactions": [], "price": "$$", "location": {"address1": "140 Washington St", "address2": "", "address3": "", "city": "Manhattan", "zip_code": "10006", "country": "US", "state": "NY", "display_address": ["140 Washington St", "Manhattan, NY 10006"]}, "phone": "+12125771133", "display_phone": "(212) 577-1133", "distance": 476.329492228313}, {"id": "eZ6HwBGDwVRmTLulz-E7ZQ", "alias": "new-york-marriott-downtown-new-york-2", "name": "New York Marriott Downtown", "image_url": "https://s3-media3.fl.yelpcdn.com/bphoto/qSAjtFm1PSs_8cUMeB6A1w/o.jpg", "is_closed": false, "url": "https://www.yelp.com/biz/new-york-marriott-downtown-new-york-2?adjust_creative=IRGiHDHEMvnO3enKiUWF4A&utm_campaign=yelp_api_v3&utm_medium=api_v3_business_search&utm_source=IRGiHDHEMvnO3enKiUWF4A", "review_count": 195, "categories": [{"alias": "hotels", "title": "Hotels"}], "rating": 3.5, "coordinates": {"latitude": 40.70945, "longitude": -74.014767}, "transactions": [], "price": "$$$", "location": {"address1": "85 W St at Albany St", "address2": "", "address3": "", "city": "New York", "zip_code": "10006", "country": "US", "state": "NY", "display_address": ["85 W St at Albany St", "New York, NY 10006"]}, "phone": "+12123854900", "display_phone": "(212) 385-4900", "distance": 535.9772483727693}, {"id": "6H427bZqS7bqAR-tU8GKDw", "alias": "1-hotel-brooklyn-bridge-brooklyn", "name": "1 Hotel Brooklyn Bridge", "image_url": "https://s3-media4.fl.yelpcdn.com/bphoto/PrE_Q4JulvtPIA7V5qN5VQ/o.jpg", "is_closed": false, "url": "https://www.yelp.com/biz/1-hotel-brooklyn-bridge-brooklyn?adjust_creative=IRGiHDHEMvnO3enKiUWF4A&utm_campaign=yelp_api_v3&utm_medium=api_v3_business_search&utm_source=IRGiHDHEMvnO3enKiUWF4A", "review_count": 245, "categories": [{"alias": "hotels", "title": "Hotels"}, {"alias": "venues", "title": "Venues & Event Spaces"}], "rating": 3.5, "coordinates": {"latitude": 40.701729, "longitude": -73.995882}, "transactions": [], "price": "$$$", "location": {"address1": "60 Furman St", "address2": null, "address3": "", "city": "Brooklyn", "zip_code": "11201", "country": "US", "state": "NY", "display_address": ["60 Furman St", "Brooklyn, NY 11201"]}, "phone": "+18778031111", "display_phone": "(877) 803-1111", "distance": 1317.6244188461246}, {"id": "SZTBP6Xj7ER4d3NSbgOA-A", "alias": "four-seasons-hotel-new-york-4", "name": "Four Seasons Hotel", "image_url": "https://s3-media3.fl.yelpcdn.com/bphoto/9aFIPCHXvZnn6Iu7bMVtDQ/o.jpg", "is_closed": false, "url": "https://www.yelp.com/biz/four-seasons-hotel-new-york-4?adjust_creative=IRGiHDHEMvnO3enKiUWF4A&utm_campaign=yelp_api_v3&utm_medium=api_v3_business_search&utm_source=IRGiHDHEMvnO3enKiUWF4A", "review_count": 54, "categories": [{"alias": "hotels", "title": "Hotels"}], "rating": 4.5, "coordinates": {"latitude": 40.7125120314833, "longitude": -74.0091322106161}, "transactions": [], "price": "$$$$", "location": {"address1": "27 Barclay St", "address2": "", "address3": null, "city": "New York", "zip_code": "10007", "country": "US", "state": "NY", "display_address": ["27 Barclay St", "New York, NY 10007"]}, "phone": "+16468801999", "display_phone": "(646) 880-1999", "distance": 439.5726766626707}, {"id": "NIpWK8ncyIz-ZhT_swINtQ", "alias": "the-artezen-hotel-new-york", "name": "Artezen Hotel", "image_url": "https://s3-media4.fl.yelpcdn.com/bphoto/nJIJTwkotASRZqnslRUYtQ/o.jpg", "is_closed": false, "url": "https://www.yelp.com/biz/the-artezen-hotel-new-york?adjust_creative=IRGiHDHEMvnO3enKiUWF4A&utm_campaign=yelp_api_v3&utm_medium=api_v3_business_search&utm_source=IRGiHDHEMvnO3enKiUWF4A", "review_count": 31, "categories": [{"alias": "hotels", "title": "Hotels"}], "rating": 4.5, "coordinates": {"latitude": 40.70964, "longitude": -74.00869}, "transactions": [], "location": {"address1": "24 John St", "address2": "", "address3": null, "city": "New York", "zip_code": "10038", "country": "US", "state": "NY", "display_address": ["24 John St", "New York, NY 10038"]}, "phone": "+12125665511", "display_phone": "(212) 566-5511", "distance": 94.74001820517331}, {"id": "svW0v_j18STsq5Ua-8waZg", "alias": "the-dominick-new-york", "name": "The Dominick", "image_url": "https://s3-media2.fl.yelpcdn.com/bphoto/oN1o_pBVqbhg0ikCZAkADA/o.jpg", "is_closed": false, "url": "https://www.yelp.com/biz/the-dominick-new-york?adjust_creative=IRGiHDHEMvnO3enKiUWF4A&utm_campaign=yelp_api_v3&utm_medium=api_v3_business_search&utm_source=IRGiHDHEMvnO3enKiUWF4A", "review_count": 337, "categories": [{"alias": "hotels", "title": "Hotels"}], "rating": 4.0, "coordinates": {"latitude": 40.72549, "longitude": -74.00529}, "transactions": [], "price": "$$$$", "location": {"address1": "246 Spring St", "address2": "", "address3": "", "city": "New York", "zip_code": "10013", "country": "US", "state": "NY", "display_address": ["246 Spring St", "New York, NY 10013"]}, "phone": "+12128425500", "display_phone": "(212) 842-5500", "distance": 1857.69900717859}, {"id": "V12xO69xVoHWSXBpb3zQ4w", "alias": "the-greenwich-hotel-new-york", "name": "The Greenwich Hotel", "image_url": "https://s3-media3.fl.yelpcdn.com/bphoto/C-kU3NpirWRVvoCgNdm1hg/o.jpg", "is_closed": false, "url": "https://www.yelp.com/biz/the-greenwich-hotel-new-york?adjust_creative=IRGiHDHEMvnO3enKiUWF4A&utm_campaign=yelp_api_v3&utm_medium=api_v3_business_search&utm_source=IRGiHDHEMvnO3enKiUWF4A", "review_count": 70, "categories": [{"alias": "hotels", "title": "Hotels"}], "rating": 4.5, "coordinates": {"latitude": 40.719848, "longitude": -74.009864}, "transactions": [], "price": "$$$$", "location": {"address1": "377 Greenwich St", "address2": "", "address3": "", "city": "New York", "zip_code": "10013", "country": "US", "state": "NY", "display_address": ["377 Greenwich St", "New York, NY 10013"]}, "phone": "+12129418900", "display_phone": "(212) 941-8900", "distance": 1240.8551639629611}, {"id": "7tAhuyrUA0H1S_jPE5HkHA", "alias": "world-center-hotel-new-york", "name": "World Center Hotel", "image_url": "https://s3-media2.fl.yelpcdn.com/bphoto/abGQvkW_3Mr9s2fUxhNlHA/o.jpg", "is_closed": false, "url": "https://www.yelp.com/biz/world-center-hotel-new-york?adjust_creative=IRGiHDHEMvnO3enKiUWF4A&utm_campaign=yelp_api_v3&utm_medium=api_v3_business_search&utm_source=IRGiHDHEMvnO3enKiUWF4A", "review_count": 136, "categories": [{"alias": "hotels", "title": "Hotels"}], "rating": 3.5, "coordinates": {"latitude": 40.7099038, "longitude": -74.0139077}, "transactions": [], "price": "$$", "location": {"address1": "144 Washington St", "address2": "", "address3": "", "city": "New York", "zip_code": "10006", "country": "US", "state": "NY", "display_address": ["144 Washington St", "New York, NY 10006"]}, "phone": "+12125772933", "display_phone": "(212) 577-2933", "distance": 483.30630866156673}, {"id": "jVAAy1KrvskicNnLcn8ylw", "alias": "nobleden-new-york", "name": "NobleDEN", "image_url": "https://s3-media3.fl.yelpcdn.com/bphoto/9ApeOdTA2yieui0M_n5W5w/o.jpg", "is_closed": false, "url": "https://www.yelp.com/biz/nobleden-new-york?adjust_creative=IRGiHDHEMvnO3enKiUWF4A&utm_campaign=yelp_api_v3&utm_medium=api_v3_business_search&utm_source=IRGiHDHEMvnO3enKiUWF4A", "review_count": 99, "categories": [{"alias": "hotels", "title": "Hotels"}], "rating": 4.5, "coordinates": {"latitude": 40.71929, "longitude": -73.99686}, "transactions": [], "price": "$$", "location": {"address1": "196 Grand St", "address2": null, "address3": "", "city": "New York", "zip_code": "10013", "country": "US", "state": "NY", "display_address": ["196 Grand St", "New York, NY 10013"]}, "phone": "+12123908988", "display_phone": "(212) 390-8988", "distance": 1533.5856161459837}, {"id": "5DkFAVEU_gAkC3wAUqdAZg", "alias": "residence-inn-by-marriott-new-york-downtown-manhattan-new-york-3", "name": "Residence Inn by Marriott New York Downtown Manhattan", "image_url": "https://s3-media4.fl.yelpcdn.com/bphoto/bs1ZtvD5T3Ml6HbGACrI9w/o.jpg", "is_closed": false, "url": "https://www.yelp.com/biz/residence-inn-by-marriott-new-york-downtown-manhattan-new-york-3?adjust_creative=IRGiHDHEMvnO3enKiUWF4A&utm_campaign=yelp_api_v3&utm_medium=api_v3_business_search&utm_source=IRGiHDHEMvnO3enKiUWF4A", "review_count": 46, "categories": [{"alias": "hotels", "title": "Hotels"}], "rating": 4.0, "coordinates": {"latitude": 40.709564, "longitude": -74.0099212}, "transactions": [], "price": "$$", "location": {"address1": "170 Broadway", "address2": "", "address3": "", "city": "New York", "zip_code": "10007", "country": "US", "state": "NY", "display_address": ["170 Broadway", "New York, NY 10007"]}, "phone": "+12126008900", "display_phone": "(212) 600-8900", "distance": 151.89338289432206}, {"id": "J0bkcxkGKZuaghjiPUc4MA", "alias": "hilton-garden-inn-new-york-tribeca-new-york-2", "name": "Hilton Garden Inn New York/Tribeca", "image_url": "https://s3-media4.fl.yelpcdn.com/bphoto/kcBqYTWIUdZfY17IePWNMw/o.jpg", "is_closed": false, "url": "https://www.yelp.com/biz/hilton-garden-inn-new-york-tribeca-new-york-2?adjust_creative=IRGiHDHEMvnO3enKiUWF4A&utm_campaign=yelp_api_v3&utm_medium=api_v3_business_search&utm_source=IRGiHDHEMvnO3enKiUWF4A", "review_count": 133, "categories": [{"alias": "hotels", "title": "Hotels"}], "rating": 4.0, "coordinates": {"latitude": 40.7209583, "longitude": -74.0054276}, "transactions": [], "price": "$$", "location": {"address1": "39 Avenue Of The Americas", "address2": "", "address3": "", "city": "New York", "zip_code": "10013", "country": "US", "state": "NY", "display_address": ["39 Avenue Of The Americas", "New York, NY 10013"]}, "phone": "+12129664091", "display_phone": "(212) 966-4091", "distance": 1381.8172974109634}, {"id": "2nEXbS33ksBOe6JViJdyog", "alias": "soho-grand-hotel-new-york", "name": "Soho Grand Hotel", "image_url": "https://s3-media3.fl.yelpcdn.com/bphoto/lqdaVJXn75DYpBhOJ8ATTg/o.jpg", "is_closed": false, "url": "https://www.yelp.com/biz/soho-grand-hotel-new-york?adjust_creative=IRGiHDHEMvnO3enKiUWF4A&utm_campaign=yelp_api_v3&utm_medium=api_v3_business_search&utm_source=IRGiHDHEMvnO3enKiUWF4A", "review_count": 361, "categories": [{"alias": "hotels", "title": "Hotels"}, {"alias": "venues", "title": "Venues & Event Spaces"}], "rating": 3.5, "coordinates": {"latitude": 40.7220519, "longitude": -74.0045064}, "transactions": [], "price": "$$$", "location": {"address1": "310 W Broadway", "address2": "", "address3": "", "city": "New York", "zip_code": "10013", "country": "US", "state": "NY", "display_address": ["310 W Broadway", "New York, NY 10013"]}, "phone": "+12129653000", "display_phone": "(212) 965-3000", "distance": 1516.6848792475514}, {"id": "Q6n8-lbd-ozt5J13xGnAwQ", "alias": "hilton-garden-inn-nyc-financial-center-manhattan-downtown-new-york", "name": "Hilton Garden Inn NYC Financial Center/Manhattan Downtown", "image_url": "https://s3-media4.fl.yelpcdn.com/bphoto/2-pv5gDIPbpLxjGdJMeU4A/o.jpg", "is_closed": false, "url": "https://www.yelp.com/biz/hilton-garden-inn-nyc-financial-center-manhattan-downtown-new-york?adjust_creative=IRGiHDHEMvnO3enKiUWF4A&utm_campaign=yelp_api_v3&utm_medium=api_v3_business_search&utm_source=IRGiHDHEMvnO3enKiUWF4A", "review_count": 36, "categories": [{"alias": "hotels", "title": "Hotels"}], "rating": 4.5, "coordinates": {"latitude": 40.70297, "longitude": -74.012281}, "transactions": [], "price": "$$$", "location": {"address1": "6 Water St", "address2": "", "address3": null, "city": "New York", "zip_code": "10004", "country": "US", "state": "NY", "display_address": ["6 Water St", "New York, NY 10004"]}, "phone": "+12122481100", "display_phone": "(212) 248-1100", "distance": 718.092224397655}], "total": 139, "region": {"center": {"longitude": -74.008476, "latitude": 40.708748}}}, "lon_-74.013084_and_lat_40.711029": {"businesses": [{"id": "GXqlI0p_NQejvDEgq0xQ9w", "alias": "conrad-new-york-downtown-new-york", "name": "Conrad New York Downtown", "image_url": "https://s3-media3.fl.yelpcdn.com/bphoto/-stq_0ZRkeQ7Lin6Ug5ixw/o.jpg", "is_closed": false, "url": "https://www.yelp.com/biz/conrad-new-york-downtown-new-york?adjust_creative=IRGiHDHEMvnO3enKiUWF4A&utm_campaign=yelp_api_v3&utm_medium=api_v3_business_search&utm_source=IRGiHDHEMvnO3enKiUWF4A", "review_count": 308, "categories": [{"alias": "hotels", "title": "Hotels"}], "rating": 4.0, "coordinates": {"latitude": 40.71503, "longitude": -74.0158397}, "transactions": [], "price": "$$$", "location": {"address1": "102 N End Ave", "address2": null, "address3": "", "city": "New York", "zip_code": "10282", "country": "US", "state": "NY", "display_address": ["102 N End Ave", "New York, NY 10282"]}, "phone": "+12129450100", "display_phone": "(212) 945-0100", "distance": 501.8694836610336}, {"id": "03EFU3OR6j085vqGAXwVbA", "alias": "gild-hall-a-thompson-hotel-new-york-4", "name": "Gild Hall, A Thompson Hotel", "image_url": "https://s3-media3.fl.yelpcdn.com/bphoto/cVdthjZkG95IPlchph7ziQ/o.jpg", "is_closed": false, "url": "https://www.yelp.com/biz/gild-hall-a-thompson-hotel-new-york-4?adjust_creative=IRGiHDHEMvnO3enKiUWF4A&utm_campaign=yelp_api_v3&utm_medium=api_v3_business_search&utm_source=IRGiHDHEMvnO3enKiUWF4A", "review_count": 226, "categories": [{"alias": "hotels", "title": "Hotels"}], "rating": 4.0, "coordinates": {"latitude": 40.7078, "longitude": -74.00694}, "transactions": [], "price": "$$", "location": {"address1": "15 Gold St", "address2": "", "address3": "", "city": "New York", "zip_code": "10038", "country": "US", "state": "NY", "display_address": ["15 Gold St", "New York, NY 10038"]}, "phone": "+12122327700", "display_phone": "(212) 232-7700", "distance": 611.9227336181646}, {"id": "jDBXpS5bX4f-tiaAz1ZZbA", "alias": "andaz-wall-street-new-york-6", "name": "Andaz Wall Street", "image_url": "https://s3-media4.fl.yelpcdn.com/bphoto/U592EmTK5bEglV2F0cW6ig/o.jpg", "is_closed": false, "url": "https://www.yelp.com/biz/andaz-wall-street-new-york-6?adjust_creative=IRGiHDHEMvnO3enKiUWF4A&utm_campaign=yelp_api_v3&utm_medium=api_v3_business_search&utm_source=IRGiHDHEMvnO3enKiUWF4A", "review_count": 302, "categories": [{"alias": "hotels", "title": "Hotels"}, {"alias": "venues", "title": "Venues & Event Spaces"}], "rating": 4.0, "coordinates": {"latitude": 40.7051574217701, "longitude": -74.0079346716969}, "transactions": [], "price": "$$$", "location": {"address1": "75 Wall St", "address2": "", "address3": "", "city": "New York", "zip_code": "10005", "country": "US", "state": "NY", "display_address": ["75 Wall St", "New York, NY 10005"]}, "phone": "+12125901234", "display_phone": "(212) 590-1234", "distance": 783.9984896289022}, {"id": "nwvo49wYOrSfg3AhafhZvA", "alias": "the-beekman-a-thompson-hotel-new-york", "name": "The Beekman, A Thompson Hotel", "image_url": "https://s3-media2.fl.yelpcdn.com/bphoto/LvgeGQppQcWaDva-9jYpUg/o.jpg", "is_closed": false, "url": "https://www.yelp.com/biz/the-beekman-a-thompson-hotel-new-york?adjust_creative=IRGiHDHEMvnO3enKiUWF4A&utm_campaign=yelp_api_v3&utm_medium=api_v3_business_search&utm_source=IRGiHDHEMvnO3enKiUWF4A", "review_count": 141, "categories": [{"alias": "hotels", "title": "Hotels"}, {"alias": "venues", "title": "Venues & Event Spaces"}], "rating": 4.0, "coordinates": {"latitude": 40.7111443, "longitude": -74.0066413}, "transactions": [], "price": "$$$", "location": {"address1": "123 Nassau St", "address2": null, "address3": "", "city": "New York", "zip_code": "10038", "country": "US", "state": "NY", "display_address": ["123 Nassau St", "New York, NY 10038"]}, "phone": "+12122332300", "display_phone": "(212) 233-2300", "distance": 543.1843853289686}, {"id": "RBHSPpLaalwkAPfF2uJaTw", "alias": "millennium-hilton-new-york-downtown-new-york-2", "name": "Millennium Hilton New York Downtown", "image_url": "https://s3-media2.fl.yelpcdn.com/bphoto/8K_8Bt-dRd5_EavEnFsU-Q/o.jpg", "is_closed": false, "url": "https://www.yelp.com/biz/millennium-hilton-new-york-downtown-new-york-2?adjust_creative=IRGiHDHEMvnO3enKiUWF4A&utm_campaign=yelp_api_v3&utm_medium=api_v3_business_search&utm_source=IRGiHDHEMvnO3enKiUWF4A", "review_count": 399, "categories": [{"alias": "hotels", "title": "Hotels"}], "rating": 3.5, "coordinates": {"latitude": 40.711114, "longitude": -74.010333}, "transactions": [], "price": "$$$", "location": {"address1": "55 Church St", "address2": "", "address3": "", "city": "New York", "zip_code": "10007", "country": "US", "state": "NY", "display_address": ["55 Church St", "New York, NY 10007"]}, "phone": "+12126932001", "display_phone": "(212) 693-2001", "distance": 232.06494827318372}, {"id": "7X5dByOWa-nXY_2eBnVcHw", "alias": "the-roxy-hotel-tribeca-new-york", "name": "The Roxy Hotel Tribeca", "image_url": "https://s3-media1.fl.yelpcdn.com/bphoto/DpJn-kHXHq5Um_nG6O8fFA/o.jpg", "is_closed": false, "url": "https://www.yelp.com/biz/the-roxy-hotel-tribeca-new-york?adjust_creative=IRGiHDHEMvnO3enKiUWF4A&utm_campaign=yelp_api_v3&utm_medium=api_v3_business_search&utm_source=IRGiHDHEMvnO3enKiUWF4A", "review_count": 422, "categories": [{"alias": "hotels", "title": "Hotels"}], "rating": 3.5, "coordinates": {"latitude": 40.71936, "longitude": -74.00483}, "transactions": [], "price": "$$$", "location": {"address1": "2 6th Ave", "address2": "", "address3": "", "city": "New York", "zip_code": "10013", "country": "US", "state": "NY", "display_address": ["2 6th Ave", "New York, NY 10013"]}, "phone": "+12125196600", "display_phone": "(212) 519-6600", "distance": 1158.7835939040074}, {"id": "giPwSjP4T0ZkXoygdbNfIA", "alias": "club-quarters-manhattan", "name": "Club Quarters", "image_url": "https://s3-media2.fl.yelpcdn.com/bphoto/PhDDeDniexUSz2EVdldymw/o.jpg", "is_closed": false, "url": "https://www.yelp.com/biz/club-quarters-manhattan?adjust_creative=IRGiHDHEMvnO3enKiUWF4A&utm_campaign=yelp_api_v3&utm_medium=api_v3_business_search&utm_source=IRGiHDHEMvnO3enKiUWF4A", "review_count": 175, "categories": [{"alias": "hotels", "title": "Hotels"}], "rating": 4.0, "coordinates": {"latitude": 40.709846496582, "longitude": -74.0139694213867}, "transactions": [], "price": "$$", "location": {"address1": "140 Washington St", "address2": "", "address3": "", "city": "Manhattan", "zip_code": "10006", "country": "US", "state": "NY", "display_address": ["140 Washington St", "Manhattan, NY 10006"]}, "phone": "+12125771133", "display_phone": "(212) 577-1133", "distance": 152.6875758611039}, {"id": "eZ6HwBGDwVRmTLulz-E7ZQ", "alias": "new-york-marriott-downtown-new-york-2", "name": "New York Marriott Downtown", "image_url": "https://s3-media3.fl.yelpcdn.com/bphoto/qSAjtFm1PSs_8cUMeB6A1w/o.jpg", "is_closed": false, "url": "https://www.yelp.com/biz/new-york-marriott-downtown-new-york-2?adjust_creative=IRGiHDHEMvnO3enKiUWF4A&utm_campaign=yelp_api_v3&utm_medium=api_v3_business_search&utm_source=IRGiHDHEMvnO3enKiUWF4A", "review_count": 195, "categories": [{"alias": "hotels", "title": "Hotels"}], "rating": 3.5, "coordinates": {"latitude": 40.70945, "longitude": -74.014767}, "transactions": [], "price": "$$$", "location": {"address1": "85 W St at Albany St", "address2": "", "address3": "", "city": "New York", "zip_code": "10006", "country": "US", "state": "NY", "display_address": ["85 W St at Albany St", "New York, NY 10006"]}, "phone": "+12123854900", "display_phone": "(212) 385-4900", "distance": 225.72171452733937}, {"id": "GYO8lvStXGZAfFDRlOxQ1Q", "alias": "hotel-50-bowery-nyc-new-york", "name": "Hotel 50 Bowery NYC", "image_url": "https://s3-media4.fl.yelpcdn.com/bphoto/3XsZ9jzMboUZqNv0sFBqNA/o.jpg", "is_closed": false, "url": "https://www.yelp.com/biz/hotel-50-bowery-nyc-new-york?adjust_creative=IRGiHDHEMvnO3enKiUWF4A&utm_campaign=yelp_api_v3&utm_medium=api_v3_business_search&utm_source=IRGiHDHEMvnO3enKiUWF4A", "review_count": 172, "categories": [{"alias": "hotels", "title": "Hotels"}, {"alias": "venues", "title": "Venues & Event Spaces"}], "rating": 4.5, "coordinates": {"latitude": 40.71599, "longitude": -73.99683}, "transactions": [], "price": "$$", "location": {"address1": "50 Bowery", "address2": null, "address3": "", "city": "New York", "zip_code": "10013", "country": "US", "state": "NY", "display_address": ["50 Bowery", "New York, NY 10013"]}, "phone": "+12125088000", "display_phone": "(212) 508-8000", "distance": 1458.0894001630606}, {"id": "SZTBP6Xj7ER4d3NSbgOA-A", "alias": "four-seasons-hotel-new-york-4", "name": "Four Seasons Hotel", "image_url": "https://s3-media3.fl.yelpcdn.com/bphoto/9aFIPCHXvZnn6Iu7bMVtDQ/o.jpg", "is_closed": false, "url": "https://www.yelp.com/biz/four-seasons-hotel-new-york-4?adjust_creative=IRGiHDHEMvnO3enKiUWF4A&utm_campaign=yelp_api_v3&utm_medium=api_v3_business_search&utm_source=IRGiHDHEMvnO3enKiUWF4A", "review_count": 54, "categories": [{"alias": "hotels", "title": "Hotels"}], "rating": 4.5, "coordinates": {"latitude": 40.7125120314833, "longitude": -74.0091322106161}, "transactions": [], "price": "$$$$", "location": {"address1": "27 Barclay St", "address2": "", "address3": null, "city": "New York", "zip_code": "10007", "country": "US", "state": "NY", "display_address": ["27 Barclay St", "New York, NY 10007"]}, "phone": "+16468801999", "display_phone": "(646) 880-1999", "distance": 368.22003546114655}, {"id": "7tAhuyrUA0H1S_jPE5HkHA", "alias": "world-center-hotel-new-york", "name": "World Center Hotel", "image_url": "https://s3-media2.fl.yelpcdn.com/bphoto/abGQvkW_3Mr9s2fUxhNlHA/o.jpg", "is_closed": false, "url": "https://www.yelp.com/biz/world-center-hotel-new-york?adjust_creative=IRGiHDHEMvnO3enKiUWF4A&utm_campaign=yelp_api_v3&utm_medium=api_v3_business_search&utm_source=IRGiHDHEMvnO3enKiUWF4A", "review_count": 136, "categories": [{"alias": "hotels", "title": "Hotels"}], "rating": 3.5, "coordinates": {"latitude": 40.7099038, "longitude": -74.0139077}, "transactions": [], "price": "$$", "location": {"address1": "144 Washington St", "address2": "", "address3": "", "city": "New York", "zip_code": "10006", "country": "US", "state": "NY", "display_address": ["144 Washington St", "New York, NY 10006"]}, "phone": "+12125772933", "display_phone": "(212) 577-2933", "distance": 150.0392520112636}, {"id": "svW0v_j18STsq5Ua-8waZg", "alias": "the-dominick-new-york", "name": "The Dominick", "image_url": "https://s3-media2.fl.yelpcdn.com/bphoto/oN1o_pBVqbhg0ikCZAkADA/o.jpg", "is_closed": false, "url": "https://www.yelp.com/biz/the-dominick-new-york?adjust_creative=IRGiHDHEMvnO3enKiUWF4A&utm_campaign=yelp_api_v3&utm_medium=api_v3_business_search&utm_source=IRGiHDHEMvnO3enKiUWF4A", "review_count": 337, "categories": [{"alias": "hotels", "title": "Hotels"}], "rating": 4.0, "coordinates": {"latitude": 40.72549, "longitude": -74.00529}, "transactions": [], "price": "$$$$", "location": {"address1": "246 Spring St", "address2": "", "address3": "", "city": "New York", "zip_code": "10013", "country": "US", "state": "NY", "display_address": ["246 Spring St", "New York, NY 10013"]}, "phone": "+12128425500", "display_phone": "(212) 842-5500", "distance": 1710.4678508244956}, {"id": "V12xO69xVoHWSXBpb3zQ4w", "alias": "the-greenwich-hotel-new-york", "name": "The Greenwich Hotel", "image_url": "https://s3-media3.fl.yelpcdn.com/bphoto/C-kU3NpirWRVvoCgNdm1hg/o.jpg", "is_closed": false, "url": "https://www.yelp.com/biz/the-greenwich-hotel-new-york?adjust_creative=IRGiHDHEMvnO3enKiUWF4A&utm_campaign=yelp_api_v3&utm_medium=api_v3_business_search&utm_source=IRGiHDHEMvnO3enKiUWF4A", "review_count": 70, "categories": [{"alias": "hotels", "title": "Hotels"}], "rating": 4.5, "coordinates": {"latitude": 40.719848, "longitude": -74.009864}, "transactions": [], "price": "$$$$", "location": {"address1": "377 Greenwich St", "address2": "", "address3": "", "city": "New York", "zip_code": "10013", "country": "US", "state": "NY", "display_address": ["377 Greenwich St", "New York, NY 10013"]}, "phone": "+12129418900", "display_phone": "(212) 941-8900", "distance": 1018.3935501138442}, {"id": "NIpWK8ncyIz-ZhT_swINtQ", "alias": "the-artezen-hotel-new-york", "name": "Artezen Hotel", "image_url": "https://s3-media4.fl.yelpcdn.com/bphoto/nJIJTwkotASRZqnslRUYtQ/o.jpg", "is_closed": false, "url": "https://www.yelp.com/biz/the-artezen-hotel-new-york?adjust_creative=IRGiHDHEMvnO3enKiUWF4A&utm_campaign=yelp_api_v3&utm_medium=api_v3_business_search&utm_source=IRGiHDHEMvnO3enKiUWF4A", "review_count": 31, "categories": [{"alias": "hotels", "title": "Hotels"}], "rating": 4.5, "coordinates": {"latitude": 40.70964, "longitude": -74.00869}, "transactions": [], "location": {"address1": "24 John St", "address2": "", "address3": null, "city": "New York", "zip_code": "10038", "country": "US", "state": "NY", "display_address": ["24 John St", "New York, NY 10038"]}, "phone": "+12125665511", "display_phone": "(212) 566-5511", "distance": 400.5094756845304}, {"id": "jVAAy1KrvskicNnLcn8ylw", "alias": "nobleden-new-york", "name": "NobleDEN", "image_url": "https://s3-media3.fl.yelpcdn.com/bphoto/9ApeOdTA2yieui0M_n5W5w/o.jpg", "is_closed": false, "url": "https://www.yelp.com/biz/nobleden-new-york?adjust_creative=IRGiHDHEMvnO3enKiUWF4A&utm_campaign=yelp_api_v3&utm_medium=api_v3_business_search&utm_source=IRGiHDHEMvnO3enKiUWF4A", "review_count": 99, "categories": [{"alias": "hotels", "title": "Hotels"}], "rating": 4.5, "coordinates": {"latitude": 40.71929, "longitude": -73.99686}, "transactions": [], "price": "$$", "location": {"address1": "196 Grand St", "address2": null, "address3": "", "city": "New York", "zip_code": "10013", "country": "US", "state": "NY", "display_address": ["196 Grand St", "New York, NY 10013"]}, "phone": "+12123908988", "display_phone": "(212) 390-8988", "distance": 1653.017042318229}, {"id": "J0bkcxkGKZuaghjiPUc4MA", "alias": "hilton-garden-inn-new-york-tribeca-new-york-2", "name": "Hilton Garden Inn New York/Tribeca", "image_url": "https://s3-media4.fl.yelpcdn.com/bphoto/kcBqYTWIUdZfY17IePWNMw/o.jpg", "is_closed": false, "url": "https://www.yelp.com/biz/hilton-garden-inn-new-york-tribeca-new-york-2?adjust_creative=IRGiHDHEMvnO3enKiUWF4A&utm_campaign=yelp_api_v3&utm_medium=api_v3_business_search&utm_source=IRGiHDHEMvnO3enKiUWF4A", "review_count": 133, "categories": [{"alias": "hotels", "title": "Hotels"}], "rating": 4.0, "coordinates": {"latitude": 40.7209583, "longitude": -74.0054276}, "transactions": [], "price": "$$", "location": {"address1": "39 Avenue Of The Americas", "address2": "", "address3": "", "city": "New York", "zip_code": "10013", "country": "US", "state": "NY", "display_address": ["39 Avenue Of The Americas", "New York, NY 10013"]}, "phone": "+12129664091", "display_phone": "(212) 966-4091", "distance": 1278.8270828773843}, {"id": "2nEXbS33ksBOe6JViJdyog", "alias": "soho-grand-hotel-new-york", "name": "Soho Grand Hotel", "image_url": "https://s3-media3.fl.yelpcdn.com/bphoto/lqdaVJXn75DYpBhOJ8ATTg/o.jpg", "is_closed": false, "url": "https://www.yelp.com/biz/soho-grand-hotel-new-york?adjust_creative=IRGiHDHEMvnO3enKiUWF4A&utm_campaign=yelp_api_v3&utm_medium=api_v3_business_search&utm_source=IRGiHDHEMvnO3enKiUWF4A", "review_count": 361, "categories": [{"alias": "hotels", "title": "Hotels"}, {"alias": "venues", "title": "Venues & Event Spaces"}], "rating": 3.5, "coordinates": {"latitude": 40.7220519, "longitude": -74.0045064}, "transactions": [], "price": "$$$", "location": {"address1": "310 W Broadway", "address2": "", "address3": "", "city": "New York", "zip_code": "10013", "country": "US", "state": "NY", "display_address": ["310 W Broadway", "New York, NY 10013"]}, "phone": "+12129653000", "display_phone": "(212) 965-3000", "distance": 1422.998006677997}, {"id": "5DkFAVEU_gAkC3wAUqdAZg", "alias": "residence-inn-by-marriott-new-york-downtown-manhattan-new-york-3", "name": "Residence Inn by Marriott New York Downtown Manhattan", "image_url": "https://s3-media4.fl.yelpcdn.com/bphoto/bs1ZtvD5T3Ml6HbGACrI9w/o.jpg", "is_closed": false, "url": "https://www.yelp.com/biz/residence-inn-by-marriott-new-york-downtown-manhattan-new-york-3?adjust_creative=IRGiHDHEMvnO3enKiUWF4A&utm_campaign=yelp_api_v3&utm_medium=api_v3_business_search&utm_source=IRGiHDHEMvnO3enKiUWF4A", "review_count": 46, "categories": [{"alias": "hotels", "title": "Hotels"}], "rating": 4.0, "coordinates": {"latitude": 40.709564, "longitude": -74.0099212}, "transactions": [], "price": "$$", "location": {"address1": "170 Broadway", "address2": "", "address3": "", "city": "New York", "zip_code": "10007", "country": "US", "state": "NY", "display_address": ["170 Broadway", "New York, NY 10007"]}, "phone": "+12126008900", "display_phone": "(212) 600-8900", "distance": 312.41630296060174}, {"id": "hgxKRLRia2Yh_jDNXli9Tg", "alias": "aka-tribeca-new-york-2", "name": "AKA Tribeca", "image_url": "https://s3-media2.fl.yelpcdn.com/bphoto/Z4jdSt9ulExysrubm9nsUg/o.jpg", "is_closed": false, "url": "https://www.yelp.com/biz/aka-tribeca-new-york-2?adjust_creative=IRGiHDHEMvnO3enKiUWF4A&utm_campaign=yelp_api_v3&utm_medium=api_v3_business_search&utm_source=IRGiHDHEMvnO3enKiUWF4A", "review_count": 103, "categories": [{"alias": "hotels", "title": "Hotels"}], "rating": 3.5, "coordinates": {"latitude": 40.71521, "longitude": -74.00913}, "transactions": [], "price": "$$$", "location": {"address1": "85 W Broadway", "address2": "", "address3": "", "city": "New York", "zip_code": "10007", "country": "US", "state": "NY", "display_address": ["85 W Broadway", "New York, NY 10007"]}, "phone": "+12125877000", "display_phone": "(212) 587-7000", "distance": 572.5492542238853}, {"id": "EL5j67uhlTWSFcrsEX9l_Q", "alias": "the-frederick-hotel-new-york", "name": "The Frederick Hotel", "image_url": "https://s3-media3.fl.yelpcdn.com/bphoto/M9MMwr2beg_0UhfirKL3eg/o.jpg", "is_closed": false, "url": "https://www.yelp.com/biz/the-frederick-hotel-new-york?adjust_creative=IRGiHDHEMvnO3enKiUWF4A&utm_campaign=yelp_api_v3&utm_medium=api_v3_business_search&utm_source=IRGiHDHEMvnO3enKiUWF4A", "review_count": 58, "categories": [{"alias": "hotels", "title": "Hotels"}], "rating": 4.0, "coordinates": {"latitude": 40.71566, "longitude": -74.0089}, "transactions": [], "price": "$", "location": {"address1": "95 W Broadway", "address2": "", "address3": null, "city": "New York", "zip_code": "10007", "country": "US", "state": "NY", "display_address": ["95 W Broadway", "New York, NY 10007"]}, "phone": "+12125661900", "display_phone": "(212) 566-1900", "distance": 617.3027832312553}], "total": 144, "region": {"center": {"longitude": -74.013084, "latitude": 40.711029}}}, "lon_-118.263023_and_lat_33.745106": {"businesses": [{"id": "s7VZFPsspgj9IpZsEMTZXg", "alias": "best-western-plus-san-pedro-hotel-and-suites-san-pedro", "name": "Best Western Plus San Pedro Hotel & Suites", "image_url": "https://s3-media1.fl.yelpcdn.com/bphoto/UbmAShvR6irE4XqE9E7Ozg/o.jpg", "is_closed": false, "url": "https://www.yelp.com/biz/best-western-plus-san-pedro-hotel-and-suites-san-pedro?adjust_creative=IRGiHDHEMvnO3enKiUWF4A&utm_campaign=yelp_api_v3&utm_medium=api_v3_business_search&utm_source=IRGiHDHEMvnO3enKiUWF4A", "review_count": 114, "categories": [{"alias": "hotels", "title": "Hotels"}], "rating": 3.5, "coordinates": {"latitude": 33.7428446910844, "longitude": -118.292609766865}, "transactions": [], "price": "$$", "location": {"address1": "111 S Gaffey St", "address2": "", "address3": "", "city": "San Pedro", "zip_code": "90731", "country": "US", "state": "CA", "display_address": ["111 S Gaffey St", "San Pedro, CA 90731"]}, "phone": "+13105141414", "display_phone": "(310) 514-1414", "distance": 2747.1711465551825}, {"id": "B6iqENQluqvlxgSj2e_5bA", "alias": "doubletree-by-hilton-hotel-san-pedro-port-of-los-angeles-san-pedro", "name": "DoubleTree by Hilton Hotel San Pedro - Port of Los Angeles", "image_url": "https://s3-media2.fl.yelpcdn.com/bphoto/JH4DaAHdr4B9eellWrodAw/o.jpg", "is_closed": false, "url": "https://www.yelp.com/biz/doubletree-by-hilton-hotel-san-pedro-port-of-los-angeles-san-pedro?adjust_creative=IRGiHDHEMvnO3enKiUWF4A&utm_campaign=yelp_api_v3&utm_medium=api_v3_business_search&utm_source=IRGiHDHEMvnO3enKiUWF4A", "review_count": 251, "categories": [{"alias": "hotels", "title": "Hotels"}], "rating": 3.0, "coordinates": {"latitude": 33.718573, "longitude": -118.2822521}, "transactions": [], "price": "$$", "location": {"address1": "2800 Via Cabrillo Marina", "address2": null, "address3": "", "city": "San Pedro", "zip_code": "90731", "country": "US", "state": "CA", "display_address": ["2800 Via Cabrillo Marina", "San Pedro, CA 90731"]}, "phone": "+13105143344", "display_phone": "(310) 514-3344", "distance": 3444.774213861828}, {"id": "Gd4K-n2B13zr2lnad3T9qg", "alias": "crowne-plaza-los-angeles-harbor-hotel-san-pedro", "name": "Crowne Plaza Los Angeles Harbor Hotel", "image_url": "https://s3-media3.fl.yelpcdn.com/bphoto/qBvFO8Zrw127HWYvw4xq8Q/o.jpg", "is_closed": false, "url": "https://www.yelp.com/biz/crowne-plaza-los-angeles-harbor-hotel-san-pedro?adjust_creative=IRGiHDHEMvnO3enKiUWF4A&utm_campaign=yelp_api_v3&utm_medium=api_v3_business_search&utm_source=IRGiHDHEMvnO3enKiUWF4A", "review_count": 214, "categories": [{"alias": "hotels", "title": "Hotels"}, {"alias": "venues", "title": "Venues & Event Spaces"}], "rating": 2.0, "coordinates": {"latitude": 33.7383003234863, "longitude": -118.282035827637}, "transactions": [], "price": "$$$", "location": {"address1": "601 S Palos Verdes St", "address2": "", "address3": "", "city": "San Pedro", "zip_code": "90731", "country": "US", "state": "CA", "display_address": ["601 S Palos Verdes St", "San Pedro, CA 90731"]}, "phone": "+13105198200", "display_phone": "(310) 519-8200", "distance": 1922.0767972570216}, {"id": "1KKxM9XIszwRve19zM6r_w", "alias": "sunrise-hotel-san-pedro-san-pedro", "name": "Sunrise Hotel San Pedro", "image_url": "https://s3-media2.fl.yelpcdn.com/bphoto/KNG6knZXHQGuytUUQnAtyQ/o.jpg", "is_closed": false, "url": "https://www.yelp.com/biz/sunrise-hotel-san-pedro-san-pedro?adjust_creative=IRGiHDHEMvnO3enKiUWF4A&utm_campaign=yelp_api_v3&utm_medium=api_v3_business_search&utm_source=IRGiHDHEMvnO3enKiUWF4A", "review_count": 86, "categories": [{"alias": "hotels", "title": "Hotels"}], "rating": 1.5, "coordinates": {"latitude": 33.739747, "longitude": -118.280131}, "transactions": [], "price": "$$", "location": {"address1": "525 S Harbor Blvd", "address2": "", "address3": "", "city": "San Pedro", "zip_code": "90731", "country": "US", "state": "CA", "display_address": ["525 S Harbor Blvd", "San Pedro, CA 90731"]}, "phone": "+13105481080", "display_phone": "(310) 548-1080", "distance": 1690.3769762371264}, {"id": "0c0fWAZnkTEIQ5wRXak5vg", "alias": "vagabond-inn-san-pedro-san-pedro-2", "name": "Vagabond Inn San Pedro", "image_url": "https://s3-media4.fl.yelpcdn.com/bphoto/08AmaNdQ64g3VQ5BMS_dLQ/o.jpg", "is_closed": false, "url": "https://www.yelp.com/biz/vagabond-inn-san-pedro-san-pedro-2?adjust_creative=IRGiHDHEMvnO3enKiUWF4A&utm_campaign=yelp_api_v3&utm_medium=api_v3_business_search&utm_source=IRGiHDHEMvnO3enKiUWF4A", "review_count": 70, "categories": [{"alias": "hotels", "title": "Hotels"}], "rating": 2.0, "coordinates": {"latitude": 33.74205, "longitude": -118.292784}, "transactions": [], "price": "$$", "location": {"address1": "215 S Gaffey St", "address2": "", "address3": "", "city": "San Pedro", "zip_code": "90731", "country": "US", "state": "CA", "display_address": ["215 S Gaffey St", "San Pedro, CA 90731"]}, "phone": "+13108318911", "display_phone": "(310) 831-8911", "distance": 2772.6643059259936}, {"id": "3J2wN8k3a85zMinnlGUYPw", "alias": "monterey-inn-wilmington", "name": "Monterey Inn", "image_url": "https://s3-media2.fl.yelpcdn.com/bphoto/PppstVce612yGbRrXkjAsg/o.jpg", "is_closed": false, "url": "https://www.yelp.com/biz/monterey-inn-wilmington?adjust_creative=IRGiHDHEMvnO3enKiUWF4A&utm_campaign=yelp_api_v3&utm_medium=api_v3_business_search&utm_source=IRGiHDHEMvnO3enKiUWF4A", "review_count": 31, "categories": [{"alias": "hotels", "title": "Hotels"}], "rating": 2.5, "coordinates": {"latitude": 33.7722091674805, "longitude": -118.262199401855}, "transactions": [], "price": "$", "location": {"address1": "233 N Avalon Blvd", "address2": "", "address3": "", "city": "Wilmington", "zip_code": "90744", "country": "US", "state": "CA", "display_address": ["233 N Avalon Blvd", "Wilmington, CA 90744"]}, "phone": "+13108358352", "display_phone": "(310) 835-8352", "distance": 3014.883833344051}, {"id": "NNpcH9ZsDeZg7a0tpcWa9A", "alias": "fort-macarthur-inn-san-pedro", "name": "Fort MacArthur Inn", "image_url": "https://s3-media1.fl.yelpcdn.com/bphoto/ItFG9ryKQgPyUWChjKA4Cw/o.jpg", "is_closed": false, "url": "https://www.yelp.com/biz/fort-macarthur-inn-san-pedro?adjust_creative=IRGiHDHEMvnO3enKiUWF4A&utm_campaign=yelp_api_v3&utm_medium=api_v3_business_search&utm_source=IRGiHDHEMvnO3enKiUWF4A", "review_count": 16, "categories": [{"alias": "hotels", "title": "Hotels"}], "rating": 2.5, "coordinates": {"latitude": 33.7225460992586, "longitude": -118.286155722297}, "transactions": [], "price": "$$", "location": {"address1": "2400 S Pacific Ave", "address2": "Bldg 37", "address3": null, "city": "San Pedro", "zip_code": "90731", "country": "US", "state": "CA", "display_address": ["2400 S Pacific Ave", "Bldg 37", "San Pedro, CA 90731"]}, "phone": "+13106538296", "display_phone": "(310) 653-8296", "distance": 3296.7738349214524}, {"id": "n-9GzUdXpv0QZxI8d-vyOQ", "alias": "all-star-inn-san-pedro", "name": "All Star Inn", "image_url": "https://s3-media2.fl.yelpcdn.com/bphoto/l4_kq0iqP4-4LinwVO2-ow/o.jpg", "is_closed": false, "url": "https://www.yelp.com/biz/all-star-inn-san-pedro?adjust_creative=IRGiHDHEMvnO3enKiUWF4A&utm_campaign=yelp_api_v3&utm_medium=api_v3_business_search&utm_source=IRGiHDHEMvnO3enKiUWF4A", "review_count": 10, "categories": [{"alias": "hotels", "title": "Hotels"}], "rating": 2.5, "coordinates": {"latitude": 33.740255, "longitude": -118.288227}, "transactions": [], "price": "$$", "location": {"address1": "411 S Pacific Ave", "address2": "", "address3": "", "city": "San Pedro", "zip_code": "90731", "country": "US", "state": "CA", "display_address": ["411 S Pacific Ave", "San Pedro, CA 90731"]}, "phone": "+13108310195", "display_phone": "(310) 831-0195", "distance": 2392.048592310657}, {"id": "3PbETWoK4K_oMsZ_ixGZrQ", "alias": "royal-hotel-los-angeles", "name": "Royal Hotel", "image_url": "https://s3-media1.fl.yelpcdn.com/bphoto/2iM6t69CvpsSRz6Wx0C0MA/o.jpg", "is_closed": false, "url": "https://www.yelp.com/biz/royal-hotel-los-angeles?adjust_creative=IRGiHDHEMvnO3enKiUWF4A&utm_campaign=yelp_api_v3&utm_medium=api_v3_business_search&utm_source=IRGiHDHEMvnO3enKiUWF4A", "review_count": 2, "categories": [{"alias": "hotels", "title": "Hotels"}], "rating": 3.0, "coordinates": {"latitude": 33.73536, "longitude": -118.28219}, "transactions": [], "price": "$$", "location": {"address1": "238 W 10th St", "address2": null, "address3": null, "city": "Los Angeles", "zip_code": "90731", "country": "US", "state": "CA", "display_address": ["238 W 10th St", "Los Angeles, CA 90731"]}, "phone": "+13108325225", "display_phone": "(310) 832-5225", "distance": 2078.7174774123505}, {"id": "zyMOANrTCE05RBy9pwkVWg", "alias": "barton-hill-hotel-san-pedro", "name": "Barton Hill Hotel", "image_url": "https://s3-media2.fl.yelpcdn.com/bphoto/P4sHQuROewC_YrHtbgEflg/o.jpg", "is_closed": false, "url": "https://www.yelp.com/biz/barton-hill-hotel-san-pedro?adjust_creative=IRGiHDHEMvnO3enKiUWF4A&utm_campaign=yelp_api_v3&utm_medium=api_v3_business_search&utm_source=IRGiHDHEMvnO3enKiUWF4A", "review_count": 5, "categories": [{"alias": "hotels", "title": "Hotels"}], "rating": 1.0, "coordinates": {"latitude": 33.74495, "longitude": -118.28757}, "transactions": [], "price": "$", "location": {"address1": "246 N Pacific Ave", "address2": "", "address3": "", "city": "San Pedro", "zip_code": "90731", "country": "US", "state": "CA", "display_address": ["246 N Pacific Ave", "San Pedro, CA 90731"]}, "phone": "+13108337004", "display_phone": "(310) 833-7004", "distance": 2269.847818764376}], "total": 10, "region": {"center": {"longitude": -118.263023, "latitude": 33.745106}}}}