{"detroit": {"position": {"lat": 42.33, "lon": -83.05}, "name": "Detroit"}, "san fransisco": {"position": {"lat": 37.77, "lon": -122.42}, "name": "San Fransisco"}, "san diego": {"position": {"lat": 32.72, "lon": -117.16}, "name": "San Diego"}, "new york city": {"position": {"lat": 40.71, "lon": -74.01}, "name": "New York City"}, "chicago": {"position": {"lat": 41.85, "lon": -87.65}, "name": "Chicago"}, "phoenix": {"position": {"lat": 33.45, "lon": -112.07}, "name": "Phoenix"}, "madison": {"position": {"lat": 43.07, "lon": -89.4}, "name": "Madison"}, "los angeles": {"position": {"lat": 34.05, "lon": -118.24}, "name": "Los Angeles"}, "detroi": {"position": {"lat": 42.33, "lon": -83.05}, "name": "Detroit"}}