{"detroit": {"position": {"lat": 42.33, "lon": -83.05}, "name": "Detroit"}, "san fransisco": {"position": {"lat": 37.77, "lon": -122.42}, "name": "San Fransisco"}, "san diego": {"position": {"lat": 32.72, "lon": -117.16}, "name": "San Diego"}, "new york city": {"position": {"lat": 40.71, "lon": -74.01}, "name": "New York City"}, "chicago": {"position": {"lat": 41.85, "lon": -87.65}, "name": "Chicago"}, "phoenix": {"position": {"lat": 33.45, "lon": -112.07}, "name": "Phoenix"}, "madison": {"position": {"lat": 43.07, "lon": -89.4}, "name": "Madison"}, "los angeles": {"position": {"lat": 34.05, "lon": -118.24}, "name": "Los Angeles"}, "detroi": {"position": {"lat": 42.33, "lon": -83.05}, "name": "Detroit"}, "sitka": {"position": {"lat": 57.05, "lon": -135.33}, "name": "sitka"}, "houston": {"position": {"lat": 29.76, "lon": -95.36}, "name": "Houston"}, "nashville": {"position": {"lat": 36.17, "lon": -86.78}, "name": "Nashville"}, "wrangell": {"position": {"lat": 56.47, "lon": -132.38}, "name": "Wrangell"}, "anchorage": {"position": {"lat": 61.22, "lon": -149.9}, "name": "Anchorage"}, "jacksonville": {"position": {"lat": 30.33, "lon": -81.66}, "name": "Jacksonville"}, "anaconda": {"position": {"lat": 46.13, "lon": -112.94}, "name": "Anaconda"}, "butte": {"position": {"lat": 46.0, "lon": -112.53}, "name": "Butte"}, "oklahoma city": {"position": {"lat": 35.47, "lon": -97.52}, "name": "Oklahoma City"}, "san antonio": {"position": {"lat": 29.42, "lon": -98.49}, "name": "san'antonio"}, "suffolk": {"position": {"lat": 36.73, "lon": -76.58}, "name": "Suffolk"}, "buckeye": {"position": {"lat": 33.37, "lon": -112.58}, "name": "Buckeye"}, "indianapolis": {"position": {"lat": 39.77, "lon": -86.16}, "name": "Indianapolis"}, "chesapeake": {"position": {"lat": 36.82, "lon": -76.27}, "name": "Chesapeake"}, "dallas": {"position": {"lat": 32.78, "lon": -96.81}, "name": "Dallas"}, "fort worth": {"position": {"lat": 32.73, "lon": -97.32}, "name": "Fort Worth"}, "louisville": {"position": {"lat": 38.25, "lon": -85.76}, "name": "Louisville"}, "memphis": {"position": {"lat": 35.15, "lon": -90.05}, "name": "Memphis"}, "kansas city": {"position": {"lat": 39.11, "lon": -94.63}, "name": "Kansas City"}, "augusta": {"position": {"lat": 44.31, "lon": -69.78}, "name": "Augusta"}, "austin": {"position": {"lat": 30.27, "lon": -97.74}, "name": "Austin"}, "lexington": {"position": {"lat": 37.99, "lon": -84.48}, "name": "Lexington"}, "el paso": {"position": {"lat": 31.76, "lon": -106.49}, "name": "El Paso"}, "virginia beach": {"position": {"lat": 36.85, "lon": -75.98}, "name": "Virginia Beach"}, "cusseta": {"position": {"lat": 32.31, "lon": -84.77}, "name": "Cusseta"}, "tucson": {"position": {"lat": 32.22, "lon": -110.93}, "name": "Tucson"}, "columbus": {"position": {"lat": 39.96, "lon": -83.0}, "name": "Columbus"}, "huntsville": {"position": {"lat": 34.73, "lon": -86.59}, "name": "Huntsville"}, "boulder city": {"position": {"lat": 35.98, "lon": -114.83}, "name": "Boulder City"}, "california city": {"position": {"lat": 35.13, "lon": -117.99}, "name": "California City"}, "tulsa": {"position": {"lat": 36.15, "lon": -95.99}, "name": "Tulsa"}, "colorado springs": {"position": {"lat": 38.83, "lon": -104.82}, "name": "Colorado Springs"}, "goodyear": {"position": {"lat": 33.44, "lon": -112.36}, "name": "Goodyear"}, "albuquerque": {"position": {"lat": 35.08, "lon": -106.65}, "name": "Albuquerque"}, "scottsdale": {"position": {"lat": 33.51, "lon": -111.9}, "name": "Scottsdale"}, "hibbing": {"position": {"lat": 47.43, "lon": -92.94}, "name": "Hibbing"}, "norman": {"position": {"lat": 35.22, "lon": -97.44}, "name": "Norman"}, "peoria": {"position": {"lat": 40.69, "lon": -89.59}, "name": "Peoria"}, "new orleans": {"position": {"lat": 29.95, "lon": -90.08}, "name": "New Orleans"}, "corpus christi": {"position": {"lat": 27.8, "lon": -97.4}, "name": "Corpus Christi"}, "montgomery": {"position": {"lat": 32.37, "lon": -86.3}, "name": "Montgomery"}, "wichita": {"position": {"lat": 37.69, "lon": -97.34}, "name": "Wichita"}, "aurora": {"position": {"lat": 39.73, "lon": -104.83}, "name": "aurora"}, "denver": {"position": {"lat": 39.74, "lon": -104.98}, "name": "Denver"}, "sierra vista": {"position": {"lat": 31.55, "lon": -110.3}, "name": "Sierra Vista"}, "fayetteville": {"position": {"lat": 35.05, "lon": -78.88}, "name": "Fayetteville"}, "carson city": {"position": {"lat": 39.16, "lon": -119.77}, "name": "Carson City"}, "raleigh": {"position": {"lat": 35.77, "lon": -78.64}, "name": "Raleigh"}, "bakersfield": {"position": {"lat": 35.37, "lon": -119.02}, "name": "Bakersfield"}, "mobile": {"position": {"lat": 30.69, "lon": -88.04}, "name": "Mobile"}, "bunnell": {"position": {"lat": 29.47, "lon": -81.26}, "name": "Bunnell"}, "chattanooga": {"position": {"lat": 35.05, "lon": -85.31}, "name": "Chattanooga"}, "las vegas": {"position": {"lat": 36.17, "lon": -115.14}, "name": "las vegas"}, "atlanta": {"position": {"lat": 33.75, "lon": -84.39}, "name": "atlanta"}, "winston-salem": {"position": {"lat": 36.1, "lon": -80.24}, "name": "Winston Salem"}, "brownsville": {"position": {"lat": 25.9, "lon": -97.5}, "name": "Brownsville"}, "columbia": {"position": {"lat": 34.0, "lon": -81.03}, "name": "Columbia"}, "lynchburg": {"position": {"lat": 37.41, "lon": -79.14}, "name": "Lynchburg"}, "greensboro": {"position": {"lat": 33.58, "lon": -83.18}, "name": "Greensboro"}, "lubbock": {"position": {"lat": 33.58, "lon": -101.86}, "name": "Lubbock"}, "fernley": {"position": {"lat": 39.61, "lon": -119.25}, "name": "Fernley"}, "yuma": {"position": {"lat": 32.73, "lon": -114.62}, "name": "Yuma"}, "little rock": {"position": {"lat": 34.75, "lon": -92.29}, "name": "Little Rock"}, "hartsville": {"position": {"lat": 36.39, "lon": -86.17}, "name": "Hartsville"}, "port st. lucie": {"position": {"lat": 27.29, "lon": -80.35}, "name": "Port St. Lucie"}, "tampa": {"position": {"lat": 27.95, "lon": -82.46}, "name": "tampa"}, "fresno": {"position": {"lat": 36.75, "lon": -119.77}, "name": "Fresno"}, "unalaska": {"position": {"lat": 53.87, "lon": -166.53}, "name": "unalaska"}, "eloy": {"position": {"lat": 32.76, "lon": -111.55}, "name": "Eloy"}, "salt lake city": {"position": {"lat": 40.76, "lon": -111.89}, "name": "Salt Lake City"}, "jackson": {"position": {"lat": 32.3, "lon": -90.18}, "name": "Jackson"}, "jacksonfort wayne": {"position": {"lat": 29.35, "lon": -89.46}, "name": "Fort Jackson"}, "charleston": {"position": {"lat": 38.35, "lon": -81.63}, "name": "Charleston"}, "abilene": {"position": {"lat": 32.45, "lon": -99.73}, "name": "Abilene"}, "palmdale": {"position": {"lat": 34.58, "lon": -118.12}, "name": "Palmdale"}}